Date / Time,City,State,Shape,Duration,Summary,Posted,Type,text,Lat,Lng
2/24/20 12:45,Chester,NH,Disk,~1 minute,"12:45 PM-shiny, disk/saucer shape seen in daylight over 101 north towards Chester, NH. Seen swaying side to side.",2/25/20,Sighting,Sighting : Chester,42.9567525,-71.25728459999999
2/24/20 06:00,Medford,OR,Formation,5 minutes,"20 lights in formation across sky. ((""Starlink"" satellites??))",2/25/20,Sighting,Sighting : Medford,42.3265152,-122.8755949
2/24/20 05:45,Medford,OR,Other,10 minutes,AT 545 AM I LOOKED UP AND SAID WHAT THE HELL IS THAT.,2/25/20,Sighting,Sighting : Medford,42.3265152,-122.8755949
2/24/20 05:30,Charlestown,RI,Light,2-3 minutes,light moving at a high rate of speed,2/25/20,Sighting,Sighting : Charlestown,41.3832162,-71.64187439999999
2/24/20 05:21,Edison,NJ,Light,25 seconds,DURING ISS PASS VIEWING SMALL OBJECT APPEARS THEN WINKS OUT,2/25/20,Sighting,Sighting : Edison,40.5187154,-74.4120953
2/24/20 04:30,North Pole,AK,Unknown,10 minutes,"Yellowish sphere, with light and a haze to it, stopped went back the direction it came from.",2/25/20,Sighting,Sighting : North Pole,64.7511111,-147.3494443
2/23/20 22:30,Stockton,CA,Formation,5 minutes,Formation of light that slowly disappears into the the night.,2/25/20,Sighting,Sighting : Stockton,37.9577016,-121.2907796
2/23/20 22:00,Honolulu,HI,Light,:03,"I saw an orange light on a vehicle over the residential area of Waikiki beach, Oahu, Hawaii.",2/25/20,Sighting,Sighting : Honolulu,21.3069444,-157.8583333
2/23/20 21:00,Ambler,PA,Triangle,2 minutes,6 or so bright lights hovering in a V shape with red on the end points then vanished.,2/25/20,Sighting,Sighting : Ambler,40.1545535,-75.22156509999999
2/23/20 20:15,Windsor,CT,Changing,20 minutes or more,I went out to walk my dog and in the NW sky there was an extremely bright light started as white and although I caould not make out a s,2/25/20,Sighting,Sighting : Windsor,41.8525984,-72.64370219999999
2/23/20 20:06,Greenville,IL,Circle,,"White, Glowing dots in the Sky.",2/25/20,Sighting,Sighting : Greenville,38.8922687,-89.41313559999999
2/23/20 20:00,Lake Elmo,MN,Teardrop,1 minute,Hovering craft with bright light over Lake elmo,2/25/20,Sighting,Sighting : Lake Elmo,44.9957998,-92.8793768
2/23/20 16:00,Lake Worth Beach,FL,Light,15 minutes,2 lights off coast of lake worth beach over ocean. Turned black and disappeared into the water or horizon.,2/25/20,Sighting,Sighting : Lake Worth Beach,26.6167555,-80.0684479
2/23/20 14:00,Upper Makefield (Above Delaware River),PA,Rectangle,20 minutes,Upon observing the sky as I often do spotting commercial aircraft I saw a stationary angular white object rotate erratically for about,2/25/20,Sighting,Sighting : Upper Makefield (Above Delaware River),40.2994965,-74.9325683
2/23/20 09:50,Girard,PA,Other,7-8 seconds,"A very large, elongated vehicle with a lot of scattered lights, appeared as a shadow and floated by overhead in the night sky.",2/25/20,Sighting,Sighting : Girard,42.0003337,-80.31811929999999
2/23/20 09:45,Denver,CO,Formation,5 minutes,Stealh Bomber shaped smear of low lights slowly moving across the sky,2/25/20,Sighting,Sighting : Denver,39.7392358,-104.990251
2/23/20 05:25,Newport,VT,Circle,25 minutes,"My self and a couple friends after work at 5:25am on 2/23/20 seen over a hundred white dots moving. (""Starlink"" satellites??))",2/25/20,Sighting,Sighting : Newport,44.9364356,-72.2051022
2/23/20 05:00,Williston,VT,Formation,30 minutes,Precise straight line procession due East in predawn sky totalling hundreds of varying brightness star-like objects,2/25/20,Sighting,Sighting : Williston,44.4454432,-73.099194
2/23/20 01:00,North Kingstown,RI,Light,5 seconds,The object was a big ball of light and above the road. I saw this same object with a friend driving in north smithfield a different par,2/25/20,Sighting,Sighting : North Kingstown,41.5568315,-71.4536835
2/22/20 22:40,Denver,CO,Fireball,3 seconds,Big blue fireball,2/25/20,Sighting,Sighting : Denver,39.7392358,-104.990251
2/22/20 22:00,Antelope,CA,Circle,5 minutes,Blue/White lights observed from the south. Proceeded north directly above us and disappeared in the distance. Multiple craft with con,2/25/20,Sighting,Sighting : Antelope,38.7166871,-121.3644216
2/22/20 21:53,Selma,IN,Circle,2-3 minutes,"Blinking red,green and blue object in sky moving erratically. Orange diamond shaped &quot;portal&quot; with blue streaks of light comi",2/25/20,Sighting,Sighting : Selma,40.1917102,-85.2688579
2/22/20 21:18,Yankton,SD,Formation,146 seconds,Low flying Ufo cluster over yankton.,2/25/20,Sighting,Sighting : Yankton,42.87110879999999,-97.39728129999999
2/22/20 21:01,Screven,GA,Sphere,30,Large sphere emmitting bright yellow light. Sits in same spot for upto 40/45 mins then slowly fades then disappears. Not a plane or hel,2/25/20,Sighting,Sighting : Screven,31.48632539999999,-82.0170596
2/22/20 21:00,San Angelo,TX,Light,15 minutes,Yellow/golden with multiple lights hovering in sky for 20 minutes then just vanished.,2/25/20,Sighting,Sighting : San Angelo,31.4637723,-100.4370375
2/22/20 20:45,Medford,OR,Circle,Various,Stationary white circular light which later was not in he sky,2/25/20,Sighting,Sighting : Medford,42.3265152,-122.8755949
2/22/20 20:03,Oklahoma City,OK,Light,5 minutes,"10 lights travel across the sky and disappear in the same place one by one. ((""Starlink"" satellites??))",2/25/20,Sighting,Sighting : Oklahoma City,35.4675602,-97.5164276
2/22/20 19:30,La Mesa,CA,Light,3-5 minutes,Blue disappearing ball of light.,2/25/20,Sighting,Sighting : La Mesa,32.7678287,-117.0230839
2/22/20 19:22,Douglasville,GA,Chevron,20 minutes,I saw a light. Too big and bright for a star. Too low to be a star. ((NUFORC Note: Possible sighting of Venus?? PD)),2/25/20,Sighting,Sighting : Douglasville,33.7514966,-84.7477136
2/22/20 19:00,St. Petersburg,FL,,3 hours,Very bright light that is totally unmoving consistently appears in the same spot in the western sky at night. ((VENUS??)),2/25/20,Sighting,Sighting : St. Petersburg,27.7676008,-82.64029149999999
2/22/20 18:10,Upper Chichester,PA,Light,5 minutes,"Three red blinking lights, forming a triangle. Each light disappeared one at a time .",2/25/20,Sighting,Sighting : Upper Chichester,39.8404739,-75.436303
2/22/20 04:50,Rochester,WA,Light,15 minutes,"25+ lights in a direct line appeared at intervals and traveled north east. ((""Starlink"" satellites??))",2/25/20,Sighting,Sighting : Rochester,46.8280636,-123.0755296
2/22/20 03:14,Shakopee,MN,Light,5 seconds,"I was driving and the road I was driving down didn't have much light, there was no one on the road behind me or coming towards me. I lo",2/25/20,Sighting,Sighting : Shakopee,44.7973962,-93.5272861
2/22/20 01:47,Chazy Lake,NY,Light,~2 minutes starting,Bright white light stationary over the lake in the middle of the night,2/25/20,Sighting,Sighting : Chazy Lake,44.7493399,-73.8243962
2/22/20 01:45,Edgartown,MA,Light,it kept going,"3 fast moving erratic lights over Edgartown, MA",2/25/20,Sighting,Sighting : Edgartown,41.3890052,-70.5133599
2/22/20,Twin Falls,ID,Cigar,20 minutee,Around 4:30 AM I stood at my kitchen window looking to the north west sky and observed what appeared to be an airplane heading toward t,2/25/20,Sighting,Sighting : Twin Falls,42.5558381,-114.4700518
2/22/20,Hixson,TN,Circle,30-45 minutes,"While arriving home we saw a large bright light above our home. It was huge, swaying side to side. ((NUFORC Note: Venus?? PD))",2/25/20,Sighting,Sighting : Hixson,35.137265,-85.2368219
2/21/20 23:50,Snohomish,WA,Disk,~3 minutes (multiple),I saw white lights hovering and moving around at least 8 times today. Looking at them with a naked eye they just looked like white ligh,2/25/20,Sighting,Sighting : Snohomish,47.91287560000001,-122.0981847
2/21/20 22:30,San Diego (Palomar Mountains),CA,Light,4 minutes,a strike of light then a bright white light that moved crazy fast and would somtimes flash,2/25/20,Sighting,Sighting : San Diego (Palomar Mountains),33.3633675,-116.8355789
2/21/20 21:30,St. Charles,MO,,2 minutes,On Friday night I was driving to my friends house and noticed 5 orange balls in the air just over the tree line roughly 5-8 miles away,2/25/20,Sighting,Sighting : St. Charles,38.7881062,-90.4974359
2/21/20 21:00,Summerville,GA,Circle,Hour,Ring of lights hovering and rotating in one spot.,2/25/20,Sighting,Sighting : Summerville,34.480642,-85.3477343
2/21/20 20:00,New York,NY,Circle,20 minutes,Steady well lit symetrical circle of lights,2/25/20,Sighting,Sighting : New York,40.7127753,-74.0059728
2/21/20 19:50,Portland,OR,Cross,30 minutes,Unknown flying object sighting in Waterfront Park.,2/25/20,Sighting,Sighting : Portland,45.5051064,-122.6750261
2/21/20 19:30,Rochester,NY,Circle,45 minutes,aircraft in the vicinity seemed not to be able to approach this object,2/25/20,Sighting,Sighting : Rochester,43.15657789999999,-77.6088465
2/21/20 19:30,Tifton,GA,Unknown,3 minutes,Large spark-like lights,2/25/20,Sighting,Sighting : Tifton,31.4504629,-83.5084973
2/21/20 13:20,South Kingstown,RI,Other,5 minutes,Strange looking 'plane' flies low from ocean northward,2/25/20,Sighting,Sighting : South Kingstown,41.4475686,-71.524667
2/21/20 07:05,La Center,WA,Cigar,5 minutes,It was white from the sun reflecting off it. It had a trail like a jet but the trail was disappearing which left it a very short tail f,2/25/20,Sighting,Sighting : La Center,45.8619434,-122.672568
2/21/20 05:45,Rothbury,MI,Circle,3 minutes,Early morning skies were cear and stars bright and so was what i thought was Mars..can someone tell me what i saw.,2/25/20,Sighting,Sighting : Rothbury,43.5072317,-86.3475717
2/21/20 05:25,Jay,VT,Formation,20 minutes,"A long band formation spotted over Jay Peak Resort. ((""Starlink"" satellites??))",2/25/20,Sighting,Sighting : Jay,44.96492540000001,-72.4602429
2/21/20 05:00,Maple Valley,WA,Light,5-10 minutes,"Star like lights descending in a pattern in the clear night sky. ((""Starlink"" satellites??))",2/25/20,Sighting,Sighting : Maple Valley,47.3903403,-122.0453589
2/21/20 03:00,NYC,NY,Circle,2 minutes,6 ufos at Statute Of Liberty 3 ufos merge into 1,2/25/20,Sighting,Sighting : NYC,40.7127753,-74.0059728
2/21/20 01:35,Seattle,WA,Oval,1-2 minutes,"Large low flying craft over Seattle just barely visible to the eye due to light pollution that did not look, move, or sound normal",2/25/20,Sighting,Sighting : Seattle,47.6062095,-122.3320708
2/21/20,North Las Vegas,NV,Oval,,Every nite this oval shape thing seat above are cond every single nite so i took pics and zoom in on it and it showed oval and then i l,2/25/20,Sighting,Sighting : North Las Vegas,36.1988592,-115.1175013
2/20/20 23:46,Royse City,TX,Unknown,21,"I saw 3-5 objects in 10"" Telescope.",2/25/20,Sighting,Sighting : Royse City,32.9751204,-96.3324817
2/20/20 23:00,Medford,OR,Oval,3 minutes,I was admiring the night sky when I saw what appeared to be a oval like object hovering from 4 to 5 miles away with lights looping arou,2/25/20,Sighting,Sighting : Medford,42.3265152,-122.8755949
2/20/20 20:30,Hermon,ME,Other,Ongoing,"Light hovering in sky. Orange or yellow. Double sphere, one on top of the other.West of Bangor airport, near Hermon. At altitude.",2/25/20,Sighting,Sighting : Hermon,44.81007,-68.9133724
2/20/20 20:00,Lake Orion,MI,Circle,60 minutes,Glowing object that seemed to follow me.,2/25/20,Sighting,Sighting : Lake Orion,42.7844752,-83.2396612
2/20/20 19:45,Jefferson Township,PA,Triangle,5 minutes,A triangulated object was hovering directly over our house I would estimate about 500 feet in the air. I had seen two similar objects a,2/25/20,Sighting,Sighting : Jefferson Township,41.4414924,-75.4927278
2/20/20 19:30,Utica,NY,Fireball,20 minutes,"Driving home from work spotted a large yellow/orange light, thought it was maybe a planet. Changed shape from circular to oval. had bli",2/25/20,Sighting,Sighting : Utica,43.100903,-75.232664
2/20/20 19:00,Dexter,IA,Circle,3 seconds,The object was green and looked like a star. It moved above me and traveled from East to the West horizon.,2/25/20,Sighting,Sighting : Dexter,41.5183216,-94.22634819999999
2/20/20 19:00,Clear Lake,IA,Disk,4 seconds,"It started off looking like a shooting star, but it went more green and turned into a disk shape and zipped off into the distance.",2/25/20,Sighting,Sighting : Clear Lake,43.1435564,-93.3788108
2/20/20 12:30,Temecula,CA,Disk,2 minutes,Objects were flying very high and circling. They started to straighten out when two of them shot off in the opposite direction. Lost si,2/25/20,Sighting,Sighting : Temecula,33.4936391,-117.1483648
2/20/20 11:15,Wayne,MI,Cross,5 minutes,Low flying object going much slower than an airplane with very boxy shaped and defined protrusions.,2/25/20,Sighting,Sighting : Wayne,42.2814269,-83.3863214
2/20/20 10:00,Amery,WI,Oval,,Pink saucer in the sky with a bubble underneath.,2/25/20,Sighting,Sighting : Amery,45.3069062,-92.3621369
2/20/20 09:00,Tacoma,WA,Circle,1 hour,Black circle floating in sky above the mountains.,2/25/20,Sighting,Sighting : Tacoma,47.2528768,-122.4442906
2/20/20 07:50,Hutchinson,KS,Circle,3 seconds,Driving down Main St/6th headed North I looked over to my left a bit and noticed a green ball of light shooting across similar to a sho,2/25/20,Sighting,Sighting : Hutchinson,38.0608445,-97.92977429999999
2/20/20 05:40,New Truxton,MO,Rectangle,1 minute,"Rectangular aircraft, super loud, 4 points of light",2/25/20,Sighting,Sighting : New Truxton,38.978376,-91.2379301
2/20/20 05:30,Pt. Townsend,WA,Light,10 minutes,String of lights.,2/25/20,Sighting,Sighting : Pt. Townsend,48.11703869999999,-122.7604471
2/20/20 04:30,Brownville,ME,Sphere,5 minutes,"white lights materialize and fly in a straight line formation. ((""Starlink"" satellites??))",2/25/20,Sighting,Sighting : Brownville,45.3070685,-69.03339
2/20/20,Monee,IL,Triangle,,"Was hovering near side of I 57 hwy pretty low, triangular with 3 red lights",2/25/20,Sighting,Sighting : Monee,41.420034,-87.7417114
2/20/20,Colchester,IL,Circle,3 minutes,Silver curricular object flying horizontally then vanished,2/25/20,Sighting,Sighting : Colchester,40.4264306,-90.7926324
2/19/20 23:00,Middleburg Heights,OH,Sphere,40 minutes,Round sphere bright light 5 of them kinda scattered I've been seeing them for 3 nights in a row now my daughter has seen them also man,2/25/20,Sighting,Sighting : Middleburg Heights,41.3614401,-81.812912
2/19/20 22:48,Last Chance,CO,Rectangle,1 hour,While watching the Viaero Sky weather camera I witnessed multiple moving lights. They were all traveling at different speeds but were a,2/25/20,Sighting,Sighting : Last Chance,39.7408195,-103.5916136
2/19/20 22:38,Bend,OR,Formation,4.5 seconds,"fast moving, 5 point triangular formation of lights that break away in unison",2/25/20,Sighting,Sighting : Bend,44.0581728,-121.3153096
2/19/20 22:30,Renton,WA,Light,<5 minutes,"Witness report: Star moving rapidly, erratically",2/25/20,Sighting,Sighting : Renton,47.4796927,-122.2079218
2/19/20 20:00,Boise,ID,Light,10 minutes,9 craft one after the other looked like a satellite at first.,2/25/20,Sighting,Sighting : Boise,43.6150186,-116.2023137
2/19/20 19:11,Cleveland,OH,Circle,2 hours,Brighter then the planet Jupiter,2/25/20,Sighting,Sighting : Cleveland,41.49932,-81.6943605
2/19/20 19:00,Jacksonville,OR,Light,10 minutes,"Multiple satellite looking objects with up to 5 in a row evenly spaced. ((""Spacelink"" satellites??))",2/25/20,Sighting,Sighting : Jacksonville,42.31345839999999,-122.9669865
2/19/20 15:50,Hoover,AL,Triangle,45,Driving down highway 150 saw a bright triangle with lights in the points and one extra in the middle of the back. Sat still over the gr,2/25/20,Sighting,Sighting : Hoover,33.4053867,-86.8113781
2/19/20 11:07,Apple Valley,CA,Disk,7 minutes,"I was looking up North for a very loud fighter jet, bus instead i seen 11 disk flying east moving slow and exchanging places one would",2/25/20,Sighting,Sighting : Apple Valley,34.5008311,-117.1858759
2/19/20 11:07,Santee,CA,Unknown,00:05,"Three separate fast moving objects left a trail behind them from 22,000 to about 5,000 feet and began to group together",2/25/20,Sighting,Sighting : Santee,32.8383828,-116.9739167
2/19/20 06:00,Chehalis,WA,Light,,A string of lights equally apart moving fast in a line.,2/25/20,Sighting,Sighting : Chehalis,46.6652443,-122.9698002
2/19/20 05:55,Everett,WA,,~2 minutes,"10-15 bright objects flying in a straight line from west to east. ((""Starlink"" satellites??))",2/25/20,Sighting,Sighting : Everett,47.9789848,-122.2020795
2/19/20 05:45,Ritzville,WA,Formation,10 minutes,"String of 40-50 lights observed traveling west to east in the early morning sky. ((""Starlink"" satellites??))",2/25/20,Sighting,Sighting : Ritzville,47.1273723,-118.3799751
2/19/20 05:45,Gresham,OR,Light,3 minutes,"String of 10 or more satellites traveling in a row. ((""Starlink"" satellites??))",2/25/20,Sighting,Sighting : Gresham,45.5098502,-122.4347608
2/19/20 05:45,Woodinville,WA,Circle,20 minutes,"Observed 12 objects, evenly spaced in a linear path, moving ENE over Snohomish Co.. ((""Spacelink"" satellites??))",2/25/20,Sighting,Sighting : Woodinville,47.7542651,-122.1634581
2/19/20 05:40,Pasco,WA,Light,20 minutes,Lights looking like satellites going follow the leader style from South West to North East comparably to circling the eartg. We have mi,2/25/20,Sighting,Sighting : Pasco,46.2305049,-119.0922316
2/19/20 05:30,Nashville,MI,Light,3-5 minutes,"Line of 8-9 lights emulating from a specific location in the sky. ((""Starlink"" satellites??))",2/25/20,Sighting,Sighting : Nashville,42.6028137,-85.0930536
2/18/20 23:30,Archie,MO,Rectangle,<1 minute,2 Huge UFOS heading northeast of Archie flying very low. (anonymous report)),2/25/20,Sighting,Sighting : Archie,38.4816813,-94.3543928
2/18/20 23:30,Stockton,CA,Light,30 seconds,Bright mini colored Blobs of light flying across the sky,2/25/20,Sighting,Sighting : Stockton,37.9577016,-121.2907796
2/18/20 22:15,Sutton,MA,Formation,1 minutes,Saw many oval lights in the night sky and then disappear.,2/25/20,Sighting,Sighting : Sutton,42.1500353,-71.7632878
2/18/20 21:00,Fredrickson,WA,Triangle,3 minutes,Black triangle flying towards Joint Base Lewis McCord in WA.,2/25/20,Sighting,Sighting : Fredrickson,47.0962112,-122.3587307
2/18/20 20:45,Bellevue,OH,Circle,,Round objects appeared and zoomed off,2/25/20,Sighting,Sighting : Bellevue,41.2736647,-82.8415763
2/18/20 20:45,Battle creek,MI,Triangle,3 minutes,"Triangle with a white light on the far corners, red on the front angle the craft was travelling. Noticed from a distance, was standing",2/25/20,Sighting,Sighting : Battle creek,42.3211522,-85.17971419999999
2/18/20 20:30,Kailua Kona,HI,Other,1 minute,"20-25 lights, at first mistaken for stars, headed in a straight line, southeast bound. ((""Starlink"" satellites??))",2/25/20,Sighting,Sighting : Kailua Kona,19.639994,-155.9969261
2/18/20 19:30,Denver,CO,Unknown,,It looked like a bug bright star until I git closer.The object started moving so I started recording this object in the sky it stoo,2/25/20,Sighting,Sighting : Denver,39.7392358,-104.990251
2/18/20 19:20,Plymouth Township,MI,Triangle,60 seconds+,Large dark airborne object with 4 bright lights that formed triangle shape hovering with no sound Apx 40+ stories in air.,2/25/20,Sighting,Sighting : Plymouth Township,42.3735328,-83.5090381
2/18/20 11:37,Limerick,PA,Sphere,15 seconds,Just before lunch looked toward sky and noticed a jet in full afterburner with a white sphere infront. The white sphere was pulling on,2/25/20,Sighting,Sighting : Limerick,40.2383606,-75.5393155
2/18/20 11:30,New York City (Brooklyn),NY,Other,20 minutes,It made a helicopter sound although it was mainly in one place and not flying I have a video as well.,2/25/20,Sighting,Sighting : New York City (Brooklyn),40.6781784,-73.9441579
2/18/20 05:25,Eugene,OR,Light,15,"Symetrical line of lights moving southwest to northeast. ((""Starlink"" satellites??))",2/25/20,Sighting,Sighting : Eugene,44.0520691,-123.0867536
2/18/20 05:20,Wilderville,OR,Unknown,~ 5 minutes,"multiple pinpoint lights (satellite type) emanating every 2-3 seconds from one point. ((""Starlink"" satellites??))",2/25/20,Sighting,Sighting : Wilderville,42.382338,-123.4670077
2/18/20 05:15,Oak bluffs,MA,Light,1,15+ UFOs seen flying slowly East to west in a straight line. 15 were counted .,2/25/20,Sighting,Sighting : Oak bluffs,41.4542793,-70.5619724
2/18/20 05:15,Los Angeles,CA,Circle,~10 minutes,"Three dim objects moving in the same direction at different times. ((""Starlink"" satellites??))",2/25/20,Sighting,Sighting : Los Angeles,34.0522342,-118.2436849
2/18/20 05:08,Medford,OR,Oval,8-10 minutes,"4 light cross sky lead light fade away back light fade in another light , happen 37 times. ((""Starlink"" satellites??))",2/25/20,Sighting,Sighting : Medford,42.3265152,-122.8755949
2/18/20 05:00,Grants Pass,OR,Light,15 minutes,Stream of moving lights in the sky just north of Grants Pass,2/25/20,Sighting,Sighting : Grants Pass,42.4390069,-123.3283925
2/18/20 04:15,Everett,WA,Other,5 minutes,hyway 9 to Granite Falls Wa,2/25/20,Sighting,Sighting : Everett,47.9789848,-122.2020795
2/17/20 21:55,Prescott Valley,AZ,Disk,2 minutes,"Saucer-shaped object with blinking, rotating lights sighted in Prescott Valley. Vanished after minute or so.",2/25/20,Sighting,Sighting : Prescott Valley,34.6100243,-112.315721
2/17/20 21:55,Prescott Valley,AZ,Oval,30 seconds,Oval object with white blinking rotating lights. After 30 seconds it veered and vanished.,2/25/20,Sighting,Sighting : Prescott Valley,34.6100243,-112.315721
2/17/20 21:35,Yonkers,NY,Cigar,20 seconds,Straight Line of Lights disappears and reappears while zig zagging across the sky,2/25/20,Sighting,Sighting : Yonkers,40.9312099,-73.89874689999999
2/17/20 21:17,NORTON,MA,Disk,30 minutes,"Two clusters of white lights, with red lights very nearby",2/25/20,Sighting,Sighting : NORTON,41.9667703,-71.1869963
2/17/20 21:05,Barbourville,KY,Sphere,5 seconds,There was a light around it,2/25/20,Sighting,Sighting : Barbourville,36.8664765,-83.8888138
2/17/20 20:50,Oklahoma City,OK,Sphere,~1 minute,Red sphere moving north to south over Oklahoma City 2/17/20,2/25/20,Sighting,Sighting : Oklahoma City,35.4675602,-97.5164276
2/17/20 20:40,Roanoke,VA,Unknown,10:40,Two blinking objects connect and then fly away together,2/25/20,Sighting,Sighting : Roanoke,37.2709704,-79.9414266
2/17/20 20:30,Kailua-Kona,HI,Disk,80 seconds,Paper thin disk at least a few miles in length seen over Kona side ran inside to get my friend for an object this size not man made,2/25/20,Sighting,Sighting : Kailua-Kona,19.639994,-155.9969261
2/17/20 20:14,High Point,NC,Fireball,3 seconds,Bright light spotted in High Point NC over lake.,2/25/20,Sighting,Sighting : High Point,35.9556923,-80.0053176
2/17/20 20:00,Bay Shore,NY,Circle,20 minutes,Was taking my evening walk and noticed a great deal of air traffic all over the sky. One pulsating circle captured my attention as it w,2/25/20,Sighting,Sighting : Bay Shore,40.7250986,-73.2453946
2/17/20 19:55,Port Hueneme,CA,Circle,20 minutes,My first actual sighting of something that cant be explained that was not on a tv show or in a video game.,2/25/20,Sighting,Sighting : Port Hueneme,34.1477829,-119.1951074
2/17/20 19:53,Forest Grove,OR,Circle,13 seconds,Went to get food for me and my coworker at 19:20. Upon returning I saw a white light with a blue hue and a smaller green orb attached p,2/25/20,Sighting,Sighting : Forest Grove,45.526998,-123.1211134
2/17/20 19:52,portland,OR,Sphere,6 seconds,Orb moved from south to north parallel to bridge approximately 100-150 yards away at a relatively slow speed before speeding away,2/25/20,Sighting,Sighting : portland,45.5051064,-122.6750261
2/17/20 19:45,Bowling Green,TX,Light,15,"Multiple “Satellites” Following Same Path in Sky. ((""Starlink"" satellites??))",2/25/20,Sighting,Sighting : Bowling Green,36.9685219,-86.4808043
2/17/20 19:30,Selden,NY,Diamond,20 minutes,Looked like north star and another object flying around it that was green it would stay a certain distant from it eventually the green,2/25/20,Sighting,Sighting : Selden,40.8664873,-73.0356625
2/17/20 19:15,"Wailea, Maui",HI,Formation,1 minute,"String of Lights over Maui. ((""Starlink"" satellites??))",2/25/20,Sighting,"Sighting : Wailea, Maui",20.6871826,-156.4391668
2/17/20 18:50,Woodbury,CT,Light,20 minutes,Low flying lights sighted performing strange maneuvers across a year time frame (still active),2/25/20,Sighting,Sighting : Woodbury,41.5445404,-73.2090025
2/17/20 15:14,Las Vegas,NV,Circle,10 minutes,"I'm a commercial pilot and advance ground instructor. I've had and filmed many UFO's over the years, this is my first report and I will",2/25/20,Sighting,Sighting : Las Vegas,36.1699412,-115.1398296
2/17/20 08:30,Morehead,KY,Disk,5 seconds,It was your typical flying saucer shape with many many bright lights so many lights it look like a city,2/25/20,Sighting,Sighting : Morehead,38.1839705,-83.4326841
2/17/20 05:55,Erda,UT,Light,3-4 minutes,"12+ non blinking lights equally spaced, appearing out of the same place, out of nowhere. ((""Starlink"" satellites??))",2/25/20,Sighting,Sighting : Erda,40.6127217,-112.3043923
2/17/20 05:50,Wanship,UT,,10 minutes,"20 or more lights, evenly spaced, traveling quickly, straight line heading Northeast, no sound. Upper atmosphere or higher.",2/25/20,Sighting,Sighting : Wanship,40.8118925,-111.4074184
2/17/20 05:25,Akron,OH,Light,3 minutes,Green UFO making directional changes,2/25/20,Sighting,Sighting : Akron,41.0814447,-81.51900529999999
2/17/20 05:20,Modesto,CA,Light,>15 seconds,2 stationary bright star-like white lights seen in a pair that then faded simultaneously in about 15 seconds.,2/25/20,Sighting,Sighting : Modesto,37.6392595,-120.9970014
2/17/20 02:00,Columbus,OH,Cylinder,8 seconds,I was driving west on Steele ave and the green Cylinder shape growing light came from went shooting across the sky right in front of me,2/25/20,Sighting,Sighting : Columbus,39.9611755,-82.99879419999999
2/17/20 01:30,St. Maries,ID,Unknown,Ongoing,Light changing from bright white to orange as if the source is rotating. The white light is very intense and lights up the entire area.,2/25/20,Sighting,Sighting : St. Maries,47.3143541,-116.5626675
2/17/20 01:28,Overland,MO,Diamond,5 seconds,One bright green flash shooting across the sky.,2/25/20,Sighting,Sighting : Overland,38.7011626,-90.3623381
2/17/20 01:18,Moreno Valley,CA,Triangle,1 minute,Traingle ufo with lights spotted in moreno valley,2/25/20,Sighting,Sighting : Moreno Valley,33.9424658,-117.2296717
2/16/20 23:00,Athelstane,WI,Sphere,2 hours,"Noticed bright light in sky,moving left to right,then stationary,looked through binoculars & looked like a round sphere,red, blue,green",2/25/20,Sighting,Sighting : Athelstane,45.4238558,-88.09538990000001
2/16/20 22:30,Avon,IN,Other,2-3 seconds,Large blue flash coming from the sky,2/25/20,Sighting,Sighting : Avon,39.7628227,-86.3997167
2/16/20 22:30,Starkville,MS,Light,2 seconds,"Bright dot shot to the middle of the sky, stopped for 2 seconds and Shit away in a completely different direction",2/25/20,Sighting,Sighting : Starkville,33.4503998,-88.81838719999999
2/16/20 21:06,Big Pine Key,FL,Fireball,4-5 seconds,02/16/20 Streak of red light lasting about 4 sec off the East coast of Big Pine Key FL at 9:06 PM,2/25/20,Sighting,Sighting : Big Pine Key,24.6698652,-81.35396899999999
2/16/20 20:15,Waxahachie,TX,Formation,20 seconds,V-formation of 20 of low-flying elongated arrowhead shaped objects,2/25/20,Sighting,Sighting : Waxahachie,32.3865312,-96.8483311
2/16/20 19:45,North Stonington,CT,Triangle,20 minutes,Triangular object observed moving east then south after dark for 20 minutes via binoculars lit up very bright then dimming changing col,2/25/20,Sighting,Sighting : North Stonington,41.4409323,-71.8811827
2/16/20 19:40,Roseburg,OR,Light,unsure,"Stationary light, brightest in the night sky. ((NUFORC Note: Possible sighting of Venus?? PD))",2/25/20,Sighting,Sighting : Roseburg,43.216505,-123.3417381
2/16/20 19:00,Springfield,OH,Formation,3 minutes,"Above the reservoir we saw a formation of 20 or more orange lights streching across the sky. ((""Starlink"" satellites??))",2/25/20,Sighting,Sighting : Springfield,39.9242266,-83.8088171
2/16/20 19:00,Cardiff By The Sea,CA,Disk,30 minutes,Scripps San Diego UFO Pair of Oscillating Discs With Spokes,2/25/20,Sighting,Sighting : Cardiff By The Sea,33.0208265,-117.2788973
2/16/20 18:00,Kinder,LA,Oval,25 minutes,Shiny non moving object,2/25/20,Sighting,Sighting : Kinder,30.485479,-92.850703
2/16/20 14:00,Pembroke Pines,FL,Circle,5 minutes,"I saw a circular silver sphere, like a bright shiny silver balloon. Floating above the clouds, it went up and down the clouds for about",2/25/20,Sighting,Sighting : Pembroke Pines,26.007765,-80.2962555
2/16/20 11:00,Honey Brook,PA,Triangle,5 minutes,"As I was driving, I noticed a bright &quot;star&quot; in the sky. But as I approached it, it turned into a triagle aircraft with a ligh",2/25/20,Sighting,Sighting : Honey Brook,40.0942664,-75.9113306
2/16/20 08:40,Brooklyn,NY,Fireball,8:47,Fireball over Prospect Park.,2/25/20,Sighting,Sighting : Brooklyn,40.6781784,-73.9441579
2/16/20 06:45,West Yarmouth,MA,Unknown,10 minutes,Strange searching lights in woods that changed colors,2/25/20,Sighting,Sighting : West Yarmouth,41.6501114,-70.2411312
2/16/20 05:59,Dillsburg,PA,Light,30 seconds,"Large bright white light, unblinking, slow movement and flicker. Vanished after a short time.",2/25/20,Sighting,Sighting : Dillsburg,40.1109255,-77.034978
2/16/20 02:30,Orlando,FL,Cigar,4 minutes,Cigar shaped object hovering over The Orlando International Airport Florida,2/25/20,Sighting,Sighting : Orlando,28.5383355,-81.3792365
2/16/20 01:00,St. George,UT,Light,5 minutes,Followed by orange orb while driving.,2/25/20,Sighting,Sighting : St. George,37.0965278,-113.5684164
2/15/20 20:30,,NE,Light,Seconds,4 evenly spaced high speed lights,2/25/20,Sighting,Sighting : nan,,
2/15/20 20:00,Skokie,IL,Light,7 minutes,"Unmanned Aerial Systems in night sky above Skokie, IL.",2/25/20,Sighting,Sighting : Skokie,42.0324025,-87.7416246
2/15/20 20:00,Redlands,CA,Teardrop,2-3 seconds,"Large glowing green, comet shaped object, flying North over Redlands and then “winks” out of existence before reaching the horizon.",2/25/20,Sighting,Sighting : Redlands,34.0555693,-117.1825381
2/15/20 19:30,Fay,OK,Light,30 minutes,"Large bright light, with smaller lights flying away from it.",2/25/20,Sighting,Sighting : Fay,35.8133797,-98.65785969999999
2/15/20 19:00,Knik,AK,Oval,2-3 hours,Very bright stationary light.,2/25/20,Sighting,Sighting : Knik,61.5158655,-149.6120203
2/15/20 19:00,Grand Terrace,CA,Light,15 seconds,Bright blue orb hovering and shooting out of sight.,2/25/20,Sighting,Sighting : Grand Terrace,34.0339031,-117.3136544
2/15/20 18:00,Alma,NY,Triangle,3 hours,"We believe we saw a triangular craft overhead in Alma, NY. on Saturday, February 15, 2020.",2/25/20,Sighting,Sighting : Alma,42.0125651,-78.0576538
2/15/20 17:00,Apollo Beach,FL,Oval,Seconds,"Single Metallic oval shaped craft seen over Apollo Beach, FL around 5 PM",2/25/20,Sighting,Sighting : Apollo Beach,27.7716947,-82.4062046
2/15/20 17:00,Mesa,AZ,Light,2 hours,A hovercraft that would fade away when approached by other aircraft and reappears after. It has appeared multiple nights in the same sp,2/25/20,Sighting,Sighting : Mesa,33.4151843,-111.8314724
2/15/20 12:30,North Hollywood,CA,Formation,15 minutes,"Glinting formation, multiple objects.",2/25/20,Sighting,Sighting : North Hollywood,34.187044,-118.3812562
2/15/20 10:30,Dawsonville,GA,Sphere,5 seconds,Silver orb,2/25/20,Sighting,Sighting : Dawsonville,34.4212052,-84.1190804
2/15/20 07:30,Weston,FL,Circle,10 minutes,Large moving ball of very light spotted in Weston/Southwest Ranches area going downwards. Was definitely not an aircraft. I was driving,2/25/20,Sighting,Sighting : Weston,26.1003654,-80.3997748
2/15/20 05:50,Logan,UT,Light,10 minutes,"Star looking lights moving from West to east. Larger, brighter, colorful star sitting in position twinkling.Went inside for about 5",2/25/20,Sighting,Sighting : Logan,41.7369803,-111.8338359
2/15/20 05:30,Spring Hill,FL,Other,10 minutes,"star moving across the east sky. Then another. ((""Starlink"" satellites??))",2/25/20,Sighting,Sighting : Spring Hill,28.4831682,-82.5369872
2/15/20 04:00,Junction,TX,Cigar,Still,Silver bright dot. I have pic 325 XXX-XXXX,2/25/20,Sighting,Sighting : Junction,30.4893555,-99.7720109
2/15/20 01:00,Bridgewater,NJ,Light,4 seconds,Large blue light streaming and disappearing in midair very low to the road,2/25/20,Sighting,Sighting : Bridgewater,40.5939636,-74.6049061
2/15/20 01:00,Dunbar,WV,,2,A ufo was in my tree I went out to smoke a cigarette and it started taking pictures of me there was somebody or something insaid of the,2/25/20,Sighting,Sighting : Dunbar,38.3606509,-81.73734850000001
2/15/20 01:00,Lehighton,PA,Oval,1 hour,Yellowish white orb sene hovering over back yard in the mountains of lehighton pa. Ring camera captures images,2/25/20,Sighting,Sighting : Lehighton,40.8337029,-75.7138008
2/15/20,Round Rock,TX,Oval,2 minutes,"Look up and see a column of orbs moving in a convoy fashion across the sky. ((""Starlink"" satellites??))",2/25/20,Sighting,Sighting : Round Rock,30.5082551,-97.678896
2/14/20 21:15,Mullica Hill,NJ,Other,10 minutes,bright round light! Just hovered still and then had a bluish and red light next to the bright light as it took off,2/25/20,Sighting,Sighting : Mullica Hill,39.7392804,-75.22407179999999
2/14/20 21:00,Royse City,TX,Light,4 minutes,"There were three side by side ... I thought were stars , I was praying asking what to do ....upset crying outside they weren’t stars",2/25/20,Sighting,Sighting : Royse City,32.9751204,-96.3324817
2/14/20 20:50,Sheridan,IN,Changing,~1 hour,"Bright, unmoving light in night sky. ((NUFORC Note: Possibly a sighting of Venus?? PD))",2/25/20,Sighting,Sighting : Sheridan,40.1350375,-86.2205487
2/14/20 20:30,EXPORT,PA,Flash,5 minutes,Irregular star like flashes,2/25/20,Sighting,Sighting : EXPORT,40.4181235,-79.6255989
2/14/20 20:00,Cedar Hill,TX,Cone,1 hour,"I saw a large moving, shifting object covered in lights at a distance in the sky.",2/25/20,Sighting,Sighting : Cedar Hill,32.5884689,-96.9561152
2/14/20 19:30,Winona,TX,Light,2.5 hours,Bright Light over I20 near Tyler TX,2/25/20,Sighting,Sighting : Winona,32.4895892,-95.167169
2/14/20 18:00,Ekin,IN,Light,30 minutes,Bright starlike changing colors silent fast moving disc shaped in binoculars,2/25/20,Sighting,Sighting : Ekin,40.2169814,-86.1616581
2/14/20 17:55,Seattle,WA,Oval,~5 minute,Glowing ovals seen in South Seattle possibly over Bremerton,2/25/20,Sighting,Sighting : Seattle,47.6062095,-122.3320708
2/14/20 16:35,Hillsboro,MO,Triangle,30 seconds,"Bright, triangle shaped object near Jefferson College in Hillsboro, MO. ((anonymous report))",2/25/20,Sighting,Sighting : Hillsboro,38.2322766,-90.5629034
2/14/20 14:54,Minneapolis,MN,Fireball,5 minutes,Whatever it was fell straight out of the sky. It looked like a little piece of fire followed by a cloud trail,2/25/20,Sighting,Sighting : Minneapolis,44.977753,-93.2650108
2/14/20 13:19,Forest,MS,Sphere,2 seconds,50 to 80 Light spheres in the sky.,2/25/20,Sighting,Sighting : Forest,32.3645888,-89.47423479999999
2/14/20 13:17,Forest,MS,Other,2,Plenty grey balls &#9917;&#65039; in the sky,2/25/20,Sighting,Sighting : Forest,32.3645888,-89.47423479999999
2/14/20 07:35,Jasper,TN,Formation,30 seconds,"I was driving through Jasper,Tennessee and I saw a series of 6 lights lined up in a straight line. They faded out one by one from right",2/25/20,Sighting,Sighting : Jasper,35.0742448,-85.6260789
2/14/20 02:46,San Francisco,CA,Unknown,1 second,Something extremely bright flew by my bedroom window with a high pitched sound woooooo. Half of my room was lit with a flash of light.,2/25/20,Sighting,Sighting : San Francisco,37.7749295,-122.4194155
2/14/20 00:04,Plantation,FL,Fireball,~90 seconds,"UFO sighting in Plantation, FL.",2/25/20,Sighting,Sighting : Plantation,26.1275862,-80.23310359999999
2/13/20 23:04,Tulsa,OK,Triangle,13 minutes,Triangular object with a single white bright light on each corner. Hovered until I got closer and then took off north,2/25/20,Sighting,Sighting : Tulsa,36.1539816,-95.99277500000001
2/13/20 21:30,Winston-Salem,NC,Sphere,30 seconds,"I saw a very bright orange/red/pinkish sphere to the northeast of my house. At first, I thought it was a planet until I realized it wa",2/25/20,Sighting,Sighting : Winston-Salem,36.09985959999999,-80.244216
2/13/20 21:30,Georgetown,TX,,30 seconds,"LARGE CIRCULAR OBJECT OVER GEORGETOWN, TEXAS.",2/25/20,Sighting,Sighting : Georgetown,30.6332618,-97.6779842
2/13/20 21:20,Detroit,MI,Light,1 minute,White light over Detroit & Windsor moving significantly faster & different direction than normal heavy early night airport traffic.,2/25/20,Sighting,Sighting : Detroit,42.331427,-83.0457538
2/13/20 21:00,Cedar lake,IN,Circle,2 hours,Spinning light in sky.,2/25/20,Sighting,Sighting : Cedar lake,41.3647578,-87.4411473
2/13/20 21:00,Hagerman,ID,Light,20 minutes,"Extremely bright, orange light twinkling above the hills, disappeared after a few minutes",2/25/20,Sighting,Sighting : Hagerman,42.81212439999999,-114.898669
2/13/20 20:53,Carlsbad,CA,Chevron,5 seconds,"Un-lit, silent V shaped object seen and illuminated from the ground",2/25/20,Sighting,Sighting : Carlsbad,33.1580933,-117.3505939
2/13/20 20:00,Salmon,ID,Disk,1 hour,Super bright light that dimmed and got bright again moving slowly above the mtn line and then disappeared behind the mtn. Very low to t,2/25/20,Sighting,Sighting : Salmon,45.1757547,-113.8959008
2/13/20 19:00,Louisville,GA,Circle,5 minutes,"Whilst travelling down US 121, a light appeared, dissapeared, and reappeared again 5-10 times, moving incrementally before each appeara",2/25/20,Sighting,Sighting : Louisville,33.0015407,-82.4112377
2/13/20 18:50,Killeen,TX,Light,3 minutes,"Clear sky, Venus was bright but then I saw two lights in the sky little brighter than",2/25/20,Sighting,Sighting : Killeen,31.1171194,-97.72779589999999
2/13/20 18:00,,CA,Circle,4,15 or so flying in a pattern. Then in a strait line. Appearing and moving at a high speed. Then disappearing out of nowhere. One shooti,2/25/20,Sighting,Sighting : nan,36.778261,-119.4179324
2/13/20 14:00,Alexandria (near),LA,Disk,10 seconds,Covered Disk shaped Object on Flatbed with US Army Soldiers Following Closely ((NUFORC Note: Military craft?? PD)),2/25/20,Sighting,Sighting : Alexandria (near),31.3112936,-92.4451371
2/13/20 12:10,Scarborough,ME,Triangle,5 minutes,"Triangular shape, gaseous-hazy outlined object high up observed 5 min., not moving, slowly dissipated, shiny sphere fell same proximity",2/25/20,Sighting,Sighting : Scarborough,43.5901974,-70.33449209999999
2/13/20 11:15,Honey Brook,PA,Triangle,15 minutes,"Bright light in sky then shrunk size then enlarged back to original large bright light. Triangle shape, hovering and suspended mid air",2/25/20,Sighting,Sighting : Honey Brook,40.0942664,-75.9113306
2/13/20 02:20,Homer,LA,Fireball,~2 minutes,At about 02:20 I was driving to work and notice a light moving in an unusual manner. I pulled over and quickly grabbed my phone to vi,2/25/20,Sighting,Sighting : Homer,32.7918133,-93.055718
2/13/20 02:00,Atco,NJ,,10 minutes,((NUFORC Note: No information provided by witness. PD)),2/25/20,Sighting,Sighting : Atco,39.7697878,-74.887946
2/12/20 21:30,Somerton,AZ,Circle,several hours,Flashing Red & Green Object over Airport - hovers for several hours,2/13/20,Sighting,Sighting : Somerton,32.5964404,-114.709677
2/12/20 21:00,Orem,UT,Light,15 minutes,"Very bright white light, motionless in western Utah night sky, sat still for 15 minutes then vanished in a blink of an eye.",2/13/20,Sighting,Sighting : Orem,40.2968979,-111.6946475
2/12/20 18:30,Driggs,ID,Changing,30 minutes,Extremely bright strange lights changing shape multiple times,2/13/20,Sighting,Sighting : Driggs,43.7229885,-111.1110872
2/12/20 17:55,Mountain Home/Glenns Ferry (between),ID,Light,20,"My wife and I were driving home from Mountain Home, and we had noticed these two yellowish-golden lights hovering in the southern sky o",2/25/20,Sighting,Sighting : Mountain Home/Glenns Ferry (between),42.944234,-115.317993
2/12/20 16:30,Ellenton,FL,Sphere,2 seconds MAX,this was a round abject. It was traveling due north. I was watching a jet fly east when I noticed this ball traveling at a very fast sp,2/13/20,Sighting,Sighting : Ellenton,27.521705,-82.5275963
2/12/20 13:00,San Diego,CA,,15 seconds,Straight projection upward at a very high rate of speed leaving a white snail trail behind.,2/13/20,Sighting,Sighting : San Diego,32.715738,-117.1610838
2/12/20 08:00,Lakewood,CO,Sphere,23 seconds,"Two (2) spherical objects hovering near homes in Lakewood, CO",2/13/20,Sighting,Sighting : Lakewood,39.7047095,-105.0813734
2/12/20 06:03,Telford (UK/England),WA,Other,6 minutes,"In total in one straight line with the same distance between them. ((""Starlink"" satellites??))",2/13/20,Sighting,Sighting : Telford (UK/England),52.6775873,-2.4672611
2/12/20 01:55,Dexter,MI,Disk,4 seconds,I was driving home from work just before two am today. I was driving on north territorial driving west bound just before Toma road. Th,2/13/20,Sighting,Sighting : Dexter,42.33836970000001,-83.8885552
2/12/20 01:30,Groveland,MA,Oval,5-10 seconds,An orange glowing discus shaped object over Groveland,2/13/20,Sighting,Sighting : Groveland,42.76036879999999,-71.0314451
2/12/20 01:00,St. Marys,KS,Formation,5 minutes,The formation of lights in the sky was moving i. An add fashion and accompanied by these noises as if it were producing very loud sound,2/13/20,Sighting,Sighting : St. Marys,39.194164,-96.0711041
2/11/20 20:30,Tomah,WI,Light,5 seconds,Just over horizon looking east saw huge yellow star like light then on second later second light appeared horizontal to first then one,2/13/20,Sighting,Sighting : Tomah,43.9785759,-90.50402140000001
2/11/20 19:30,Janesville,WI,Sphere,3 minutes,"02/11/20 19:30 Janesville, Wisconsin 5 orange spheres maneuvering in the night sky then disappeared.",2/13/20,Sighting,Sighting : Janesville,42.6827885,-89.0187222
2/11/20 19:30,San Francisco,CA,Egg,>30 minutes,Weird bright and big orb that had large spikes and was larger than a star and higher up than any plane,2/13/20,Sighting,Sighting : San Francisco,37.7749295,-122.4194155
2/11/20 19:20,Red Granite,WI,Rectangle,2 minutes,Square craft with many lights,2/13/20,Sighting,Sighting : Red Granite,44.0419238,-89.09845039999999
2/11/20 06:05,Boise,ID,Light,~90 seconds,A straight line formation of lights traveling northeast,2/13/20,Sighting,Sighting : Boise,43.6150186,-116.2023137
2/11/20 06:00,Snow Hill,NC,Sphere,2 minutes,"Out looking at the moon with friend, sun rises in East faint glow of daylight, full moon beginning to set west, few high level clouds b",2/13/20,Sighting,Sighting : Snow Hill,35.4515504,-77.6810859
2/10/20 22:07,Puyallup,WA,Other,5-10 seconds,"An orange glowing orb falling from the sky, gave off an uneasy feeling of being watched. My one cat ran out of the room as soon as she",2/13/20,Sighting,Sighting : Puyallup,47.1853785,-122.2928974
2/10/20 22:00,Clearlake,CA,Unknown,150 minutes,"Multiple crafts seen over Clearlake, seen descending to Mt. Konocti",2/13/20,Sighting,Sighting : Clearlake,38.9582307,-122.6263728
2/10/20 21:24,Calaveras County,CA,Light,2 seconds,"Large, round, bright white light rapidly ascended and disappeared in seconds, without decreasing size, into clear night sky.",2/13/20,Sighting,Sighting : Calaveras County,38.1960477,-120.6805037
2/10/20 20:30,Red Lodge,MT,Fireball,5 minutes,Object appeared suddenly looking West over Grizzly peak. Looked like a super bright star flashing red and blue light. Object stayed st,2/13/20,Sighting,Sighting : Red Lodge,45.1857782,-109.2468211
2/10/20 20:30,Epping,NH,Triangle,10 minutes,"Noticed a bright orange star near the moon, the light became 2 lights as it came closer, then a 3rd light appeared in back, it then flo",2/13/20,Sighting,Sighting : Epping,43.0534843,-71.0735476
2/10/20 20:00,Shoreline,WA,Circle,1 hour,Watch a large stationary craft for about one hour. It would get brighter then dimmer. It appeared to have lights around it changing col,2/13/20,Sighting,Sighting : Shoreline,47.7559659,-122.3456972
2/10/20 18:42,La Grange,IL,Oval,40 minutes,I was looking for the moon I saw the moon but to my right I saw this object with pulsing lights but wasn't moving. Then I turned my hea,2/13/20,Sighting,Sighting : La Grange,41.8050314,-87.8692254
2/10/20 07:30,Wisconsin Dells,WI,Rectangle,"Now, still going","Flashing lights that faded then came back. Stayed in place. Seemed to be more than one light, and rectangle. In comparison to other s",2/13/20,Sighting,Sighting : Wisconsin Dells,43.6274794,-89.7709579
2/10/20 07:05,Rockville,MD,Sphere,5,While sitting in morning traffic on highway 270 southbound right passed the Wooten parkway overpass I looked up to the left and noticed,2/13/20,Sighting,Sighting : Rockville,39.0839973,-77.1527578
2/10/20 06:07,Ventura,CA,Light,4 minutes,"Saw lights quickly go into cloud, about 3 single file, then behind them several started coming in one by one quickly...we waited for th",2/13/20,Sighting,Sighting : Ventura,34.2804923,-119.2945199
2/10/20 05:30,Airway Heights,WA,Light,Ongoin,"I went downstairs an was looking out the glass door when I saw 3 lights lined up moving the same speed across the sky. The another, and",2/13/20,Sighting,Sighting : Airway Heights,47.644611,-117.5932727
2/10/20 05:30,Temecula,CA,Formation,2 min.,"8 lights in a straight line, evenly spaced traveling SW to NE. ((""Starlink"" satellites??))",2/25/20,Sighting,Sighting : Temecula,33.4936391,-117.1483648
2/10/20 00:30,Meridian,ID,Triangle,3 minutes,Triangle shaped bright white object with flashing green and red lights in a triangle form hovering in the sky then reappearing.,2/13/20,Sighting,Sighting : Meridian,43.6121087,-116.3915131
2/9/20 20:14,Lake Havasu City,AZ,Light,15 seconds,Four silent bright red/pink light cluster moving low SWerly over Lake Havasu City.,2/25/20,Sighting,Sighting : Lake Havasu City,34.483901,-114.3224548
2/9/20 19:55,Danville,KY,Light,:10,"In the Western sky, witnessed a falling &quot;orbish&quot; &quot;soft white&quot; white light falling to Earth, lasted maybe ten second",2/13/20,Sighting,Sighting : Danville,37.6456329,-84.77217019999999
2/9/20 19:45,Phoenix,AZ,Other,10 minutes,5 or more orange bright craft Phoenix 02/09/20,2/13/20,Sighting,Sighting : Phoenix,33.4483771,-112.0740373
2/9/20 19:40,Northfield,ME,Sphere,a few seconds,"Large, luminous bright white sphere traveling at a high rate of speed.",2/13/20,Sighting,Sighting : Northfield,44.8289649,-67.5705504
2/9/20 19:00,Dunellon,FL,Sphere,2 minutes,"White silent sphere moving from northwest to south east, in Dunellon Fl.",2/13/20,Sighting,Sighting : Dunellon,29.0491426,-82.46093309999999
2/9/20 18:15,Cromwell,KY,Fireball,2 seconds,It was as fireball along with a tail of fire falling across the sky with a downward angle from West to East lasting perhaps 2-3 seconds,2/25/20,Sighting,Sighting : Cromwell,37.3403254,-86.7880462
2/9/20 18:00,Laurel,MD,Diamond,,There's no stars in the sky. Its dusk. I'm really convinced it's a UFO.it looks like a disk or a saucer but also diamond shaped and lit,2/13/20,Sighting,Sighting : Laurel,39.0992752,-76.8483061
2/9/20 07:45,Sarasota,FL,Sphere,1 hour +,Glowing ball of light over West/Southwest sky. Did not move at all. Definitely not Venus.,2/13/20,Sighting,Sighting : Sarasota,27.3364347,-82.53065269999999
2/9/20 05:45,Montara,CA,Circle,20,Glowing UFO’s over the ocean,2/13/20,Sighting,Sighting : Montara,37.5421617,-122.5160892
2/9/20 05:30,Roseville,CA,Light,~5 minutes,"Up to 15 white lights seen flying in a single file like formation over Roseville, Ca. at 5:30 a,m. on 2/09/20 going from north to south",2/13/20,Sighting,Sighting : Roseville,38.7521235,-121.2880059
2/9/20 05:30,McKinleyville,CA,Light,~1minute,"20 or thirty lights appearing out of nowhere , evenly space headed east southeast.",2/13/20,Sighting,Sighting : McKinleyville,40.94651520000001,-124.1006205
2/8/20 00:00,Ocean Gate,NJ,Light,6:15 am,"((NUFORC Note: Witness, who elects to remain totally anonymous, provides no information. PD))",2/25/20,Sighting,Sighting : Ocean Gate,39.926785,-74.13374960000002
2/8/20 23:30,Sacramento,CA,Unknown,4 minutes,Triangle blinking lights.,2/13/20,Sighting,Sighting : Sacramento,38.5815719,-121.4943996
2/8/20 23:00,Manchester,MO,Light,~2 minutes,There were two objects at first nearly side by side and a third object trailed them. These objects did not have any noise and were mov,2/13/20,Sighting,Sighting : Manchester,38.5969977,-90.5092882
2/8/20 22:00,Savannah,GA,Light,1 second,I was driving and saw these three bright lights appear as fast as it appeared it was falling rapidly. Then before it would have hit or,2/13/20,Sighting,Sighting : Savannah,32.0808989,-81.091203
2/8/20 22:00,Yucca Valley,CA,Light,unsure,"Three lights arranged themselves into a triangle up on the sky and one by one they flashed a light; flash, flash, flash.",2/13/20,Sighting,Sighting : Yucca Valley,34.1141743,-116.432235
2/8/20 21:00,Jerome,ID,Light,2+hours,"Light in the night sky that is moving and will dim and brighten. ((NUFORC Note: Venus, or perhaps Sirius?? PD))",2/13/20,Sighting,Sighting : Jerome,42.7240732,-114.5186534
2/8/20 20:00,Baker city,OR,Changing,2 - 5 hours,Flying orb over southwestern mountain range nightly in eastern Oregon.,2/13/20,Sighting,Sighting : Baker city,44.7748748,-117.8343848
2/8/20 19:00,Lenexa,KS,Oval,05:00,Four UFO Blue light shaped objects circulating close to ground in a park,2/13/20,Sighting,Sighting : Lenexa,38.9536174,-94.73357089999999
2/8/20 17:30,New York,NY,Flash,5-10 seconds,"Two bright, stationary white flashes over the city during the super moon",2/13/20,Sighting,Sighting : New York,40.7127753,-74.0059728
2/8/20 16:10,Whidbey Island,WA,,,MADAR Node 58,2/25/20,Sighting,Sighting : Whidbey Island,47.9982761,-122.4395026
2/8/20 14:00,Cos Cob,CT,Sphere,,2 am I saw a round shiny red sphere flash by in seconds.,2/13/20,Sighting,Sighting : Cos Cob,41.0340436,-73.59964719999999
2/8/20 12:00,West Memphis,AR,Oval,30 seconds,"Small, bronze collected craft. Stopped on a dime and reversed direction. Moving fast.",2/13/20,Sighting,Sighting : West Memphis,35.1464797,-90.1845388
2/8/20 09:13,West Chazy,NY,,,MADAR Node 65,2/25/20,Sighting,Sighting : West Chazy,44.8205832,-73.5085082
2/8/20 08:30,Huntland,TN,Light,2 seconds,My fiancé and I were driving on Winchester rd. and it was really dark out. This white ball of light flew pass us about as high up as an,2/13/20,Sighting,Sighting : Huntland,35.0511972,-86.2697099
2/8/20 06:51,Laurelville,OH,,,MADAR Node 107,2/25/20,Sighting,Sighting : Laurelville,39.473397,-82.73933629999999
2/8/20 06:30,Oklahoma City,OK,Light,2 minutes,String of lights that disappeared one by one,2/13/20,Sighting,Sighting : Oklahoma City,35.4675602,-97.5164276
2/8/20 06:14,Overland Park,KS,Light,10 minutes,"At 6:13 am , Saturday morning I stepped out on my back porch to have a smoke. I was facing west and the moon was full in the Northwest",2/13/20,Sighting,Sighting : Overland Park,38.9822282,-94.6707917
2/8/20 06:12,Salem,UT,Formation,1 minute,9 non blinking lights equally spaced following each other in straight line northeast 2/8/2020 at 6:12 am,2/13/20,Sighting,Sighting : Salem,40.0530105,-111.673536
2/8/20 06:00,Jerome,ID,Light,10 minutes,looked up at sky seen 3 moving lighted objects then observed several more ran and told coworker they would appear about 15 sec interval,2/13/20,Sighting,Sighting : Jerome,42.7240732,-114.5186534
2/8/20 05:51,Ukiah,CA,Unknown,4 minutes,Lights in the early moring sky!,2/13/20,Sighting,Sighting : Ukiah,39.1501709,-123.2077831
2/8/20 05:50,Hyde Park,NY,Formation,6-8 seconds,"Three star sized objects,thought it was Orion's belt until they were actually traversing in a North Eastern path from the Western side",2/13/20,Sighting,Sighting : Hyde Park,41.7667602,-73.9015246
2/8/20 05:50,Mashpee,MA,Circle,3 minutes,I saw 12 to 16 lights not blinking gliding across the sky pretty rapidly not in a consistent formation but intermittent and not equally,2/13/20,Sighting,Sighting : Mashpee,41.647872,-70.4819674
2/8/20 05:48,Tenafly,NJ,Formation,15,String formation. Looked like stars one after the other for a good 15min. They were moving East - North-East. The last light appeared b,2/13/20,Sighting,Sighting : Tenafly,40.9253766,-73.9629154
2/8/20 05:45,Nevada city,CA,Oval,5 minutes,"30 UFO's in a uniform line over the Nor-Cal pre-dawn sky, 02/08/2020",2/13/20,Sighting,Sighting : Nevada city,39.2615606,-121.0160594
2/8/20 05:30,Snydersville,PA,Oval,5 minutes,A line of 20 lights following two lights in the sky heading East. Making no sound but travelled in a line,2/13/20,Sighting,Sighting : Snydersville,40.9584265,-75.2915713
2/8/20 03:57,Edmonds,WA,,,MADAR Node 61,2/25/20,Sighting,Sighting : Edmonds,47.8106521,-122.3773551
2/8/20 03:45,Reading,PA,Light,5 minutes,"Saw 11 evenly spaced lights flying, then make a 90° turn. ((""Starlink"" satellites??))",2/13/20,Sighting,Sighting : Reading,40.3356483,-75.9268747
2/8/20 02:00,Kennebunk,ME,Circle,Ongoing,Orange light rising and disappearing again and again over ocean near Pease AFB,2/13/20,Sighting,Sighting : Kennebunk,43.3845306,-70.54399
2/7/20 23:30,Aldan,PA,Triangle,1 hour,"Spotted 2 triangle shaped crafts in the sky with white, red and blue lights moving very slowly.",2/13/20,Sighting,Sighting : Aldan,39.9215013,-75.2879631
2/7/20 22:10,Lakewood,CO,Other,10 seconds,Huge object with many small lights moving below the clouds in Lakewood towards Denver,2/13/20,Sighting,Sighting : Lakewood,39.7047095,-105.0813734
2/7/20 21:50,Golden,CO,Fireball,3 seconds,"Green fireball went across the sky and turned orange, then disappeared. It was too large to be a comet, about the size of 5+ airplanes.",2/13/20,Sighting,Sighting : Golden,39.755543,-105.2210997
2/7/20 20:00,Carlin,NV,Circle,About 5 minutes.,"On the night of February 7, 2020 I was traveling from Carlin, NV to Elko, NV which is about a 25 minute drive and a distance of 23 mile",2/25/20,Sighting,Sighting : Carlin,40.7138067,-116.1039663
2/7/20 19:30,Halton City,TX,Changing,1.5 hrs or more,Ft Worth UFO,2/13/20,Sighting,Sighting : Halton City,32.7995738,-97.26918169999999
2/7/20 19:15,Gilbert,AZ,Light,10 minutes,Strange light over Gilbert Arizona,2/13/20,Sighting,Sighting : Gilbert,33.3528264,-111.789027
2/7/20 19:00,Lawrenceville,GA,Fireball,2 seconds,Saw fireball in the sky. ((anonymous report)).,2/13/20,Sighting,Sighting : Lawrenceville,33.9562149,-83.9879625
2/7/20 18:59,Berkeley,CA,Triangle,10 seconds,"Three dim lights in a triangle, and two others, all moving across the sky.",2/13/20,Sighting,Sighting : Berkeley,37.8715226,-122.273042
2/7/20 17:00,Pahrump,NV,Oval,10,Very Bright Circle,2/13/20,Sighting,Sighting : Pahrump,36.2082943,-115.9839147
2/7/20 11:15,Elgin,OK,Cigar,2 minutes,White cigar shaped ufo over Elgin,2/13/20,Sighting,Sighting : Elgin,34.7803469,-98.292273
2/7/20 08:40,Patterson,CA,Changing,4 seconds,Thought I seen 2 jets ready to cross over each other turned out to be only 1 jet and a UFO that at one point looked like a jet.,2/13/20,Sighting,Sighting : Patterson,37.4716546,-121.1299128
2/7/20 08:13,Lakeland,FL,Disk,5 minutes,Small white lighted disk in FL hovering right above shopping mall,2/13/20,Sighting,Sighting : Lakeland,28.0394654,-81.9498042
2/7/20 06:45,Rimrock,AZ,Light,,"Several lights moving in unison. could be one large craft. not planes. ((""Starlink"" satellites??))",2/7/20,Sighting,Sighting : Rimrock,34.64041700000001,-111.7833524
2/7/20 05:36,Sand Springs,OK,Light,2 minutes,Observed 5 same sized luminous objects in sky traveling from South to North in a straight line. First object was slightly ahead of the,2/13/20,Sighting,Sighting : Sand Springs,36.1398102,-96.108891
2/7/20 05:30,Lakeside,CA,Formation,10 seconds,Ten craft where seen flying over Lakeside in formation at a high rate of speed.Headed East by North East.9 in a row with 1 straggler. T,2/7/20,Sighting,Sighting : Lakeside,32.8572718,-116.9222488
2/7/20 05:30,Ventura,CA,Formation,1 minute,"line formation of moving lights. ((""Starlink: satellites??))",2/13/20,Sighting,Sighting : Ventura,34.2804923,-119.2945199
2/7/20 05:30,Palmdale,CA,Triangle,,I was going out side for my morning smoke when i saw a triangle ufo flying extremely low then i noticed it wasnt alone there were many,2/7/20,Sighting,Sighting : Palmdale,34.5794343,-118.1164613
2/7/20 05:15,Benton,KY,Light,2-3 minutes,Strange light in KY.,2/7/20,Sighting,Sighting : Benton,36.85727809999999,-88.350315
2/7/20 05:05,Newburgh,IN,,,MADAR Node 142,2/25/20,Sighting,Sighting : Newburgh,37.9444882,-87.4052865
2/7/20 03:25,Mountlake Terrace,WA,,,MADAR Node 100,2/25/20,Sighting,Sighting : Mountlake Terrace,47.7881528,-122.3087405
2/7/20 01:30,Comstock Park,MI,Light,2,"Around 12 am is when i first noticed outside of my window, I’m on the second story of my house and my window looks out north towards Sp",2/7/20,Sighting,Sighting : Comstock Park,43.0386368,-85.67003319999999
2/6/20 22:00,Rockford,IA,Unknown,Unknown,Night sky . East south east of my location. Low on the horizon. Flashing or strobing bright lights. No regular pattern. Bright red at,2/13/20,Sighting,Sighting : Rockford,43.0521922,-92.94853010000001
2/6/20 21:40,Wooster,OH,Flash,1 second,"There was a bright turquoise flash in the sky, toward the southwest. There was no sound of any impact or explosion.",2/7/20,Sighting,Sighting : Wooster,40.8050565,-81.935143
2/6/20 19:45,Independence,MO,Cylinder,30 seconds,"Huge UFO with brilliant lights flying low over Kansas City, Missouri",2/7/20,Sighting,Sighting : Independence,39.0911161,-94.41550679999999
2/6/20 18:40,Topeka,KS,Light,~3 minutes,Me (a middle school student) and my dad (who drives my library's book mobile) saw an orb shaped object the color of Venus in the sky mo,2/7/20,Sighting,Sighting : Topeka,39.0473451,-95.67515759999999
2/6/20 18:34,Socorro (south of),NM,Changing,25 minutes,"On the evening of February 6, 2020 around approximately 6:34 PM, I was driving Northbound on Interstate 25 near Milepost 124 South of S",2/13/20,Sighting,Sighting : Socorro (south of),34.0583995,-106.8914159
2/6/20 18:26,Mobile,AL,,,MADAR Node 63,2/25/20,Sighting,Sighting : Mobile,30.6953657,-88.0398912
2/6/20 17:30,The Dalles,OR,Disk,10 seconds,Large disk above town moving slowly away,2/25/20,Sighting,Sighting : The Dalles,45.5945645,-121.1786823
2/6/20 11:15,Myrtle Beach,SC,Other,2 minutes,Large Cargo Plane Hovering.,2/7/20,Sighting,Sighting : Myrtle Beach,33.6890603,-78.8866943
2/6/20 05:54,Venice,FL,,5 minutes,"7 craft moving in succession. ((""Starlink"" satellites??))",2/7/20,Sighting,Sighting : Venice,27.0997775,-82.4542632
2/5/20 23:00,Arlington,VA,Light,15-20 minutes,Jet fighters surround DC area in late night search,2/13/20,Sighting,Sighting : Arlington,38.8799697,-77.1067698
2/5/20 21:10,Las Vegas,NV,Light,15 minutes,Heard really loud noise and saw 2 lights. Then sound dissapeared and started blinking. They both vanished.,2/7/20,Sighting,Sighting : Las Vegas,36.1699412,-115.1398296
2/5/20 20:50,Jacksonville,FL,Circle,5 minutes,White red ball above nas Jacksonville,2/7/20,Sighting,Sighting : Jacksonville,30.3321838,-81.65565099999999
2/5/20 19:00,Ridgeway,VA,Circle,5 minutes,A bright round light that changed brightnesses and moves off in a northwest direction,2/7/20,Sighting,Sighting : Ridgeway,36.5768046,-79.8583721
2/5/20 18:05,Honolulu,HI,Light,45 seconds,"I looked up at the sky and saw round white lights going over the mountain range in a straight line. ((""Starlink"" satellites??))",2/7/20,Sighting,Sighting : Honolulu,21.3069444,-157.8583333
2/5/20 15:00,Melbourne,FL,Fireball,15 seconds,We were driving back from store on Appolo Rd and were at the stop light to turn on to Sarno Rd in Melbourne. While sitting at red light,2/13/20,Sighting,Sighting : Melbourne,28.0836269,-80.60810889999999
2/5/20 13:30,Cape Elizabeth,ME,Circle,20 seconds,"small flying (disc) object, in a Vertical to the ground position, seen from an upstairs window",2/13/20,Sighting,Sighting : Cape Elizabeth,43.563696,-70.2000467
2/5/20 07:21,Monroe,MI,Diamond,7:25,Two diamond shaped lights stayed stationary before the one to the left (facing north) suddenly flew away very quickly.,2/7/20,Sighting,Sighting : Monroe,41.9164343,-83.3977101
2/5/20 06:24,jacksonville,FL,Formation,3-4 minutes,"Just Before Sunrise a formation of 15 to 30 what appeared to be satellites were evenly spaced appeared. ((""Starlink"" satellites??))",2/7/20,Sighting,Sighting : jacksonville,30.3321838,-81.65565099999999
2/5/20 06:10,Wailuku,HI,Light,2 minutes,"There were 80+ big bright shining lights, all moving fast in the same direction, right before disappearing. ((""Starlink"" satellites??))",2/7/20,Sighting,Sighting : Wailuku,20.8911111,-156.5047222
2/5/20 06:10,Kailua,HI,Formation,5-6 minutes,"Moving across the sky south toward east a formation of 40+ things that looked like stars. ((""Starlink"" satellites??))",2/7/20,Sighting,Sighting : Kailua,21.4022222,-157.7394444
2/4/20 23:00,Arlington,VA,Light,1-2 minutes,"Fighter planes chase light over Washington, DC, area.",2/13/20,Sighting,Sighting : Arlington,38.8799697,-77.1067698
2/4/20 18:00,Maiden,NC,Changing,2 minutes,Three lights changed formation.,2/7/20,Sighting,Sighting : Maiden,35.5756889,-81.2117473
2/4/20 17:38,Oaklandon,IN,,,MADAR Node 87,2/25/20,Sighting,Sighting : Oaklandon,39.8727638,-85.9563198
2/4/20 12:47,Cabot,VT,Triangle,5 seconds,Driving and saw red lights above the trees. Then theyy floated off towards Danville and disappeared,2/7/20,Sighting,Sighting : Cabot,44.4013947,-72.3123023
2/4/20 06:04,Fort Myers,FL,Formation,2 minutes,"I was looking up at the sky because I heard the cows in the field next to me salmon off very erratically ((""Starlink"" satellites??))",2/7/20,Sighting,Sighting : Fort Myers,26.640628,-81.8723084
2/4/20 06:00,Waialua Molokai,HI,Formation,5 minutes,"Fast moving formation of what looked like 20 stars traveling west to East ((""Starlink"" satellites??))",2/7/20,Sighting,Sighting : Waialua Molokai,21.1002778,-156.7613888
2/4/20 00:20,Mishawaka,IN,,10 seconds,"Bright light outside bedroom window, loud noises, window rattled sounded like a jet plane",2/7/20,Sighting,Sighting : Mishawaka,41.6619927,-86.15861559999999
2/4/20,Carver,MA,Sphere,60 minutes +,"The incident went on for well over, I first noticed its lights and it was suspended over the cranberry Boggs. ((anonymous))",2/7/20,Sighting,Sighting : Carver,41.8834363,-70.7625376
2/3/20 23:16,Mobile,AL,,,MADAR Node 63,2/25/20,Sighting,Sighting : Mobile,30.6953657,-88.0398912
2/3/20 21:10,Springfield,IL,Triangle,on going,Almost stationary triangle with three white lights,2/7/20,Sighting,Sighting : Springfield,39.78172130000001,-89.6501481
2/3/20 20:28,Goodnight,TX,Unknown,1 minute,"Saw white and blue lights,thought it was an airplane but it shifted positions and directions quickly, and then blinked out completely.",2/7/20,Sighting,Sighting : Goodnight,35.0344948,-101.1862695
2/3/20 20:00,Eastaboga,AL,Unknown,Hours,Well this has been happening several nights for awhile now first we thought the lights were drones until we started to see 2 drones fly,2/7/20,Sighting,Sighting : Eastaboga,33.6070215,-86.0187907
2/3/20 19:38,Clarksville,TN,Triangle,1 minute,"While driving to work, I noticed a large wing shaped craft with 4 or 5 green lights across the front of the craft.I tried to stop and g",2/13/20,Sighting,Sighting : Clarksville,36.5297706,-87.3594528
2/3/20 19:00,Ararat,VA,Circle,everynight,there are white lights and color changing lights in the sky every night everybody around has seen no one seems to know what yhey are. t,2/7/20,Sighting,Sighting : Ararat,36.599025,-80.5106191
2/3/20 18:45,Murfreesboro,TN,Disk,75 minutes,We saw about 15-20 circular objects with bright lights. They formed triangle and pyramid formations. Hovered & changed directions quick,2/13/20,Sighting,Sighting : Murfreesboro,35.8456213,-86.39027
2/3/20 18:30,Key Largo,FL,Light,40 minutes,"Blinking orange ball, erratic,",2/7/20,Sighting,Sighting : Key Largo,25.0865151,-80.4472802
2/3/20 12:53,Whidbey Island,WA,,,MADAR Node 58,2/25/20,Sighting,Sighting : Whidbey Island,47.9982761,-122.4395026
2/3/20 07:00,Stanley,WI,Cone,2 minutes,I was watching the sunrise on my way home and looking at the pretty colors and all of a sudden I noticed some lights just under the clo,2/7/20,Sighting,Sighting : Stanley,44.95996570000001,-90.93708459999999
2/3/20 06:00,Ellwood city,PA,Light,~1 hour,At first the lights were moving together very fast but stopped over the neighborhood. The several balls of light kept changing shape an,2/7/20,Sighting,Sighting : Ellwood city,40.8617303,-80.2864515
2/3/20 06:00,Anacortes,WA,Light,10 minutes,"String of a little over 20 lights all traveling together extremely fast from W to E. ((""Starlink"" satellites??))",2/7/20,Sighting,Sighting : Anacortes,48.51260449999999,-122.6126718
2/3/20 03:00,San Diego,CA,Fireball,3-4 minutes,Watched 3 UFO's all with bright orange color navigate the San Diego skies,2/7/20,Sighting,Sighting : San Diego,32.715738,-117.1610838
2/3/20 01:25,Wallingford,CT,,,MADAR Node 139,2/25/20,Sighting,Sighting : Wallingford,41.4570108,-72.8230736
2/2/20 23:06,Kyle,TX,Changing,3 minutes,3 twinkling amber and white lights were seen as a straight line that changed into a triangle and back to a straight line.,2/7/20,Sighting,Sighting : Kyle,29.9891052,-97.87722670000001
2/2/20 21:30,Diboll,TX,Circle,1 hour,"9 Orange balls of light that flew in the same pattern, seen by 3 people in East Texas.",2/7/20,Sighting,Sighting : Diboll,31.1871319,-94.7810412
2/2/20 21:00,Pataskala,OH,Sphere,5 seconds,Witnesses approximately 10 to 15 glowing objects racing across the sky moving from Orion the hunter's 3 star belt to the right (north).,2/7/20,Sighting,Sighting : Pataskala,39.9956193,-82.6743341
2/2/20 21:00,Apache,OK,Circle,15 minutes,"Saturday Feb 2nd went outside to my truck to get keys , seen a single file of dim white lights,((""Starlink"" satellites??))",2/7/20,Sighting,Sighting : Apache,34.8936766,-98.3658875
2/2/20 20:41,Shady Valley,TN,Unknown,1 hour,"Walking into my garage, I see a set of 2 very bright lights over the treetops about 150 meters to my northeast, they dont appear to be",2/7/20,Sighting,Sighting : Shady Valley,36.5192819,-81.92789859999999
2/2/20 19:10,Centralia,WA,Light,30 minutes,19:10 Sunday night I saw what looked like a bright planet in the sky. I assessed the brightness of other objects in the sky because,2/7/20,Sighting,Sighting : Centralia,46.7162136,-122.9542972
2/2/20 19:00,Chelsea,AL,Oval,30 minutes,Coming in from work we could see a white light in the sky that wasn’t moving. 2 adults witnessed this with one of the adults being a fi,2/7/20,Sighting,Sighting : Chelsea,33.3401108,-86.6302625
2/2/20 19:00,Mansfield,OH,Light,>30 minutes,My wife an I were leaving our home with our two sons when we were about to pull out of our driveway when we noticed a very big bright l,2/7/20,Sighting,Sighting : Mansfield,40.75839,-82.5154471
2/2/20 18:15,Spokane Valley,WA,Sphere,2 hours,Watched an orb for two hours. It looked bizarre with a spotting scope. It looks weird in my video as well.,2/7/20,Sighting,Sighting : Spokane Valley,47.6732281,-117.2393748
2/2/20 18:00,Las vegas,NV,Sphere,25 minutes,"We noticed a sphere in the north west sky, remaining stationary over Las Vegas as we were traveling south into town. It remained for qu",2/7/20,Sighting,Sighting : Las vegas,36.1699412,-115.1398296
2/2/20 17:00,Ojai,CA,Diamond,2 seconds,2 people observed large white diamond-shaped object flash across NW sky.,2/7/20,Sighting,Sighting : Ojai,34.4480495,-119.242889
2/2/20 11:45,Chandler,AZ,Other,13 minutes,Saw 150+ yellow small parachute type objects in a random static pattern float southward,2/7/20,Sighting,Sighting : Chandler,33.3061605,-111.8412502
2/2/20 10:38,Las Vegas,NV,Circle,5 minutes,We're working on a project at nellis and Las Vegas boulevard North and told my friend about the item in the sky and he came out and loo,2/25/20,Sighting,Sighting : Las Vegas,36.1699412,-115.1398296
2/2/20 07:30,Hueytown,AL,Other,Going on 8 hours,Very seriously concerning what I'm seeing right now since February 2nd 2020 yesterday 7:30 p.m. I noticed something that didn't look r,2/7/20,Sighting,Sighting : Hueytown,33.4512197,-86.9966606
2/2/20 05:53,Hamilton Township,NJ,,,MADAR Node 62,2/13/20,Sighting,Sighting : Hamilton Township,40.2115109,-74.6796651
2/1/20 23:53,Valhalla,NY,Light,15 minutes,"Looking at the nest camera, I've seen recorded a light in the sky that says going north/east and lasted for 15 minutes and then disappe",2/7/20,Sighting,Sighting : Valhalla,41.0748188,-73.77513259999999
2/1/20 23:05,Grand Junction,CO,,,MADAR Node 75,2/25/20,Sighting,Sighting : Grand Junction,39.0638705,-108.5506486
2/1/20 22:45,Palm Springs,CA,Fireball,4-5 minutes,Orange glowing lights moving in the sky,2/7/20,Sighting,Sighting : Palm Springs,33.8302961,-116.5452921
2/1/20 20:52,Nampa,ID,Light,1 minute,Orange light in the sky over Nampa,2/7/20,Sighting,Sighting : Nampa,43.5788175,-116.55978
2/1/20 20:00,Hillsboro,MO,Light,20-40 minutes,"balls of light were moving and moving in a straight line. ((""Starlink"" satellites??))",2/7/20,Sighting,Sighting : Hillsboro,38.2322766,-90.5629034
2/1/20 19:30,Lone Jack,MO,Light,8 minutes,50-60 lights at very high altitude moving in perfect succession.,2/7/20,Sighting,Sighting : Lone Jack,38.87084189999999,-94.1738345
2/1/20 19:30,Lenexa,KS,Light,5 minutes or more.,"Seemingly endless stream of equally spaced lights traveling across the night sky. ((""Starlink"" satellites??))",2/7/20,Sighting,Sighting : Lenexa,38.9536174,-94.73357089999999
2/1/20 19:30,Shawnee National Forest,IL,Light,10,Myself and 2 others were camping in Shawnee Forest at the top of a bluff about 300 ft tall. It was night. My friend said come lool at,2/13/20,Sighting,Sighting : Shawnee National Forest,37.49253789999999,-88.903881
2/1/20 16:45,West Covina,CA,Formation,30 minutes,Several white lights in triangular formation around the moon,2/7/20,Sighting,Sighting : West Covina,34.0686208,-117.9389526
2/1/20 11:45,Santa Paula,CA,Other,3 minutes,"I was driving on Telegraph Rd. in the city of Santa Paula, heading in a northeastern direction. I was speaking on the phone with my boy",2/7/20,Sighting,Sighting : Santa Paula,34.3541659,-119.0592705
2/1/20 07:00,Southside,AL,Light,25 minutes,Distant unmoving bright light in sky west of our house fading out & brightening again over & over. After about 10 minutes it dropped,2/7/20,Sighting,Sighting : Southside,33.9245425,-86.02247179999999
2/1/20 06:38,Woodbine,GA,,,MADAR Node 154,2/25/20,Sighting,Sighting : Woodbine,30.9638429,-81.7226063
2/1/20 01:34,Aledo,TX,Triangle,2 hours,Triangle and orb type craft over Ftworth/parker county texas,2/7/20,Sighting,Sighting : Aledo,32.6959643,-97.6022471
1/31/20 21:30,Prospect,OR,Light,30 minute,"1.31.2020 Approximately 9:30-10 While driving home fom work, headed east near lost creek lake on hwy 62, I noticed what I thought was",2/7/20,Sighting,Sighting : Prospect,42.754335,-122.4886972
1/31/20 19:56,Arizona City,AZ,Unknown,2,Blinking unexplained lights that tilt and move.,2/25/20,Sighting,Sighting : Arizona City,32.7558935,-111.6709584
1/31/20 19:30,Sevierville,TN,Oval,3-5 minutes,This is twice in one week I've seen this. Round or oval object flying quickly in circles quickly in round circle.,2/7/20,Sighting,Sighting : Sevierville,35.8681455,-83.56183500000002
1/31/20 11:40,Royal Palm Beach,FL,,,MADAR Node 76,2/13/20,Sighting,Sighting : Royal Palm Beach,26.7083984,-80.2306019
1/31/20 09:11,York,PA,Other,2 minutes,"As I was walking home from work i look up in the sky and see what looks like an object of some sort resembling a helicopter, with no wi",2/7/20,Sighting,Sighting : York,39.9625984,-76.727745
1/31/20 05:01,Jonesboro,AR,,,MADAR Node 141,2/25/20,Sighting,Sighting : Jonesboro,35.84229670000001,-90.704279
1/31/20 04:00,Buckhannon,WV,Light,3 hours,Numerous lights moving around in the woods below our homes. At first my neighbor and I thought they were just people in the woods with,1/31/20,Sighting,Sighting : Buckhannon,38.9939872,-80.2320276
1/30/20 22:00,Mesa,AZ,Light,5 minutes,Aircraft with Four white lights with no red/green running lights,2/7/20,Sighting,Sighting : Mesa,33.4151843,-111.8314724
1/30/20 21:00,Monson,MA,Triangle,5 minutes,2 white 1 red triangular craft over Monson Massachusetts. Western Mass,2/7/20,Sighting,Sighting : Monson,42.1042451,-72.3189519
1/30/20 19:30,Lemasters,PA,Triangle,5-7 minutes,"UFO Sighting – Thursday, January 30, 1920 Lemasters, Pa Around 7:30 pm while leaving our daughters home, there was a craft heading Nor",2/7/20,Sighting,Sighting : Lemasters,39.86120260000001,-77.8594413
1/30/20 18:09,Boscawen,NH,Light,20 minutes,Two bright & silent moving objects in the sky,2/7/20,Sighting,Sighting : Boscawen,43.32439309999999,-71.636864
1/30/20 18:00,Framingham,MA,Circle,15 seconds,I live on the 6th floor of apt. building & have an unobstructed view of the tree line & above & I usually see planes in the sky during,2/7/20,Sighting,Sighting : Framingham,42.279286,-71.4161565
1/30/20 07:00,Wanaque,NY,Light,,Saw an extremely pulsing large light over the Wanaque reservoir,2/7/20,Sighting,Sighting : Wanaque,41.0381525,-74.2940378
1/30/20 06:00,San Bernardino,CA,Flash,All day,Strange flash of light in the sky and trails of objects falling out of the sky toward the mountains 01/30/20. 01/31/20 1 witness of 6 s,2/7/20,Sighting,Sighting : San Bernardino,34.1083449,-117.2897652
1/30/20 05:45,Leeds,ME,Light,30 minutes,Two amber lights traveling north,1/31/20,Sighting,Sighting : Leeds,44.3034024,-70.1194984
1/30/20,Concord,NH,Light,3 min,Was upstairs in room and looked out window and saw two very bright white lights flying extremely low. At first I thought it was plane;,2/25/20,Sighting,Sighting : Concord,43.2081366,-71.5375718
1/30/20,Bellevue,WA,Triangle,2-3 minutes,About 7:00 PM I spotted a home plate shaped object in the sky. all the corners had pulsing lights. They did not pulse at the same time,2/7/20,Sighting,Sighting : Bellevue,47.6101497,-122.2015159
1/29/20 23:05,Tacoma/Graham,WA,Light,6,I was driving down a back road out here and all the sudden on my left driver side I saw up in the sky a BRIGHT light MOVING very FAST a,1/31/20,Sighting,Sighting : Tacoma/Graham,47.0528789,-122.2942839
1/29/20 22:29,Garden Grove,CA,Fireball,7 seconds,Golden Meteor.,2/7/20,Sighting,Sighting : Garden Grove,33.7742692,-117.9379952
1/29/20 22:12,Sanford,FL,,,MADAR Node 91,2/13/20,Sighting,Sighting : Sanford,28.8028612,-81.269453
1/29/20 21:20,Janesville,WI,Sphere,5 minutes,When I first spotted the lights it looked like two bright fireballs in the sky. I thought I was seeing a crash in the sky. Then I got a,1/31/20,Sighting,Sighting : Janesville,42.6827885,-89.0187222
1/29/20 20:10,San Diego,CA,Fireball,2 seconds,meteor or space junk?,1/31/20,Sighting,Sighting : San Diego,32.715738,-117.1610838
1/29/20 19:45,Brady,TX,Light,Lights disappear,"Driving north on US 87 just outside Brady, Texas to yellow circle lights fade and disappear.",1/31/20,Sighting,Sighting : Brady,31.1351682,-99.3350552
1/29/20 19:25,Cheektowaga,NY,Other,75 minutes,"It looked like a pyramid with 7+ white lights, 2 blinking red lights and 1 blinking green light. It hovered in the air motionless for a",1/31/20,Sighting,Sighting : Cheektowaga,42.9071477,-78.7542892
1/29/20 18:14,Newburgh,IN,,,MADAR Node 142,2/25/20,Sighting,Sighting : Newburgh,37.9444882,-87.4052865
1/29/20 17:43,Oakdale,PA,Cylinder,7 seconds,gray cylinder with dim red and white lights vanished from sight.,1/31/20,Sighting,Sighting : Oakdale,40.3981246,-80.1856134
1/29/20 16:00,Littleton,CO,Cigar,30 seconds,Sighting over Littleton on Wednesday.,2/7/20,Sighting,Sighting : Littleton,39.613321,-105.0166498
1/29/20 11:30,Bakersfield,CA,Changing,1 minutes,One orange object with tail following turned into three objects. All had tails at first then were orange lights. Could have moved aroun,1/31/20,Sighting,Sighting : Bakersfield,35.3732921,-119.0187125
1/29/20 09:07,Melbourne,FL,Rectangle,30 seconds,I was driving northbound on I-95 around 9:00 am when I noticed an accident in the opposite southbound lane with traffic building up. As,1/31/20,Sighting,Sighting : Melbourne,28.0836269,-80.60810889999999
1/29/20 05:30,Coeur d'Alene,ID,Circle,30 seconds,I saw bright green light pretty far up above my city while leaving the gym this morning. Just when. I was trying to figure out what it,1/31/20,Sighting,Sighting : Coeur d'Alene,47.6734632,-116.7812225
1/29/20 01:00,Warren,ME,Light,40 minutes,Flashing green orb,1/31/20,Sighting,Sighting : Warren,44.116967,-69.25314639999999
1/28/20 23:44,Colonial Heights,VA,Triangle,2-3 minutes,"3 white lights and a blinking white and red light hovering, then moving slowly.",1/31/20,Sighting,Sighting : Colonial Heights,37.244039,-77.4102607
1/28/20 21:15,Varnville,SC,Other,10 minutes,"Last night my husband was out walking the dogs and he yelled for me to step out the back porch and look up, at the tree line in the sky",1/31/20,Sighting,Sighting : Varnville,32.8504445,-81.07927219999999
1/28/20 20:10,Palm Harbor,FL,Light,ongoing,Bright light that shined out rays of light in all different directions and patterns. ((NUFORC Note: Venus?? PD)),1/31/20,Sighting,Sighting : Palm Harbor,28.0780718,-82.7637127
1/28/20 19:30,Longs,SC,Light,5 minutes,I was walking my dog and saw 3 red blinking lights almost vertical but not straight. This was northeast/north. I thought this was odd a,1/31/20,Sighting,Sighting : Longs,33.9385051,-78.73307369999999
1/28/20 18:45,North Hollywood,CA,Other,15 minutes,2 observers. Brightness of Jupiter. Conscious attention scared em away. Immediate reaction.,1/31/20,Sighting,Sighting : North Hollywood,34.187044,-118.3812562
1/28/20 18:45,Davis,CA,,10 secondsss,Two very bright star like objects seen near Orion’s Belt,1/31/20,Sighting,Sighting : Davis,38.5449065,-121.7405167
1/28/20 18:35,Natchitoches,LA,Light,5 minutes,Orange/white light in the sky.,1/31/20,Sighting,Sighting : Natchitoches,31.7607195,-93.08627489999999
1/28/20 18:35,Deming,WA,Triangle,10 minutes,"They were all in a straight line as I looked the line of lights was almost horizon to horizon. ((""Starlink"" satellites??))",1/31/20,Sighting,Sighting : Deming,48.82567179999999,-122.21599
1/28/20 18:34,Shoreline,WA,Light,20 minutes,"12-13 lights witnessed, traveling perpendicular to clouds and stars, some in loose formation with no Civilian Airliner Nav strobes.",1/31/20,Sighting,Sighting : Shoreline,47.7559659,-122.3456972
1/28/20 18:25,Honolulu,HI,Changing,38 seconds,Me and my friend were working on my van in my mom's driveway. helicopters have been flying low buzzing her house very low shaking windo,1/31/20,Sighting,Sighting : Honolulu,21.3069444,-157.8583333
1/28/20 18:05,Woodland,CA,Sphere,~7 minutes,"As I was leaving work on Tuesday (1/28/2020), I looked to the night sky and saw about five (possibly more) orange orbs in the sky. They",1/31/20,Sighting,Sighting : Woodland,38.67851570000001,-121.7732971
1/28/20 17:35,N. Myrtle Beach,SC,Chevron,4-5 minutes,Huge Chevron Shaped craft,1/31/20,Sighting,Sighting : N. Myrtle Beach,33.8160058,-78.680016
1/28/20 15:30,Las Vegas,NV,Triangle,30,"Shaped like a triangle, transparent like a light cloud camouflaged with the background but clear shape that could be seen through. Larg",1/31/20,Sighting,Sighting : Las Vegas,36.1699412,-115.1398296
1/28/20 09:45,Asheville,NC,Egg,5 seconds,dark pill shaped object over the black mountain range,2/7/20,Sighting,Sighting : Asheville,35.5950581,-82.5514869
1/28/20 06:53,North Port,FL,,,MADAR Node 147,2/25/20,Sighting,Sighting : North Port,27.044224,-82.2359254
1/28/20 06:26,Valley City,ND,,,MADAR Node 93,2/13/20,Sighting,Sighting : Valley City,46.9233129,-98.0031547
1/28/20 05:30,Green River,UT,Teardrop,5-8 seconds,"Teardrop shaped object, Green River, Utah.",1/31/20,Sighting,Sighting : Green River,38.9955607,-110.1596352
1/28/20 05:19,Royal Palm Beach,FL,,,MADAR Node 76,2/13/20,Sighting,Sighting : Royal Palm Beach,26.7083984,-80.2306019
1/27/20 23:00,Grand Island,NY,Oval,15 minutes,"MY UFO REPORTING OF 2002 IS GONE ? A SHARED ABDUCTION ON GRAND ISLAND N.Y. UNDER JUNE OF 1975 IS NO LONGER THERE ,,, after the abductio",2/7/20,Sighting,Sighting : Grand Island,43.0216283,-78.9657302
1/27/20 22:30,Fishersville,VA,Oval,2 minutes,the craft was much larger than a helicopter and oval shaped grey with spinning colored lights and followed beside my car.,2/25/20,Sighting,Sighting : Fishersville,38.0990233,-78.9691923
1/27/20 22:30,Bangor,ME,Flash,10 seconds,Was riding by Mount Hope Cemetery (2nd oldest cemetery in United States. My friend and I saw a big orange light manifest twice. Was big,2/7/20,Sighting,Sighting : Bangor,44.8016128,-68.7712257
1/27/20 22:28,Lakewood,CA,Unknown,1 minute,Large red pulsating light vanished.,2/7/20,Sighting,Sighting : Lakewood,33.8536269,-118.1339563
1/27/20 20:00,Meridian,ID,Circle,5 seconds,My son was taking out the trash. We saw a fireball a few years ago right down the street & talk about it all the time. He started won,1/31/20,Sighting,Sighting : Meridian,43.6121087,-116.3915131
1/27/20 19:00,Rockvale,TN,Other,hours,"Large Light formation in west/soutwest sky above the moon, 7PM Rockvale, Tennessee",2/7/20,Sighting,Sighting : Rockvale,35.7574629,-86.5313906
1/27/20 18:40,Weatherford,TX,Unknown,30,Low flying/hovering helicopter sounding objects with bright white lights,2/7/20,Sighting,Sighting : Weatherford,32.7592955,-97.7972544
1/27/20 17:45,Oxford,MS,Disk,Unknown,"3 blue lit UFOs seen at dusk near local Walmart in Oxford, MS",2/7/20,Sighting,Sighting : Oxford,34.3668299,-89.51863499999999
1/27/20 11:23,Fishers,IN,,,MADAR Node 84,2/13/20,Sighting,Sighting : Fishers,39.9567548,-86.01335
1/27/20 05:25,Newburgh,IN,,,MADAR Node 142,2/25/20,Sighting,Sighting : Newburgh,37.9444882,-87.4052865
1/26/20 23:00,Hazel Green,KY,Triangle,45 minutes,"3 black triangles in formation flying low in a southeasterly direction, make no sound at all.",1/31/20,Sighting,Sighting : Hazel Green,37.797587,-83.41657149999999
1/26/20 20:21,Olympia,WA,Light,15 minutes,Orange orbs with accompanying rumbling noise. ((anonymous report)),1/31/20,Sighting,Sighting : Olympia,47.0378741,-122.9006951
1/26/20 19:00,Bushkill,PA,Changing,15 minutes,Lights changing shape,1/31/20,Sighting,Sighting : Bushkill,41.09342900000001,-75.0018401
1/26/20 18:15,Kenai,AK,Egg,2 minutes,"Bright Red and Orange Egg shaped crafts flying about 500 feet, 6 in a row, no sound whatsoever, lights not blinking.",1/31/20,Sighting,Sighting : Kenai,60.55444439999999,-151.2583333
1/26/20 18:00,Pasadena,TX,Sphere,10 minutes,The orb/sphere was very a bright orange. It was very slowly moving (compared to a nearby aircraft that quickly flew nearby) It pulsated,1/31/20,Sighting,Sighting : Pasadena,29.6910625,-95.2091006
1/26/20 16:30,Fairfax,CA,Fireball,2-3 seconds,low and close extremely bright white fireball Fairfax CA followed by loud boom.,1/31/20,Sighting,Sighting : Fairfax,37.9871454,-122.5888686
1/26/20 16:15,Santa Rsoa,CA,Cylinder,10 seconds,"Bright green glowing cylinder, flying horizontally, in a steady direct line, disappearing abruptly without arcing, falling or flaring.",2/13/20,Sighting,Sighting : Santa Rsoa,38.440429,-122.7140548
1/26/20 06:45,Aynor,SC,Unknown,45 seconds,"This orange/fiery object seemed as if were a plane on fire, and then I lost sight of it while driving after slowing down.",1/31/20,Sighting,Sighting : Aynor,33.9998881,-79.1994874
1/26/20 04:13,Mobile,AL,,,MADAR Node 63,1/31/20,Sighting,Sighting : Mobile,30.6953657,-88.0398912
1/25/20 22:00,Coral Springs,FL,Circle,1:39,It was 10:00 pm est and I was outside of my house and I looked up and saw a circle red light moving at a slow place from the North. I r,1/31/20,Sighting,Sighting : Coral Springs,26.271192,-80.2706044
1/25/20 21:24,Lawrenceville,GA,,,MADAR Node 92,2/7/20,Sighting,Sighting : Lawrenceville,33.9562149,-83.9879625
1/25/20 07:23,Spencerville,IN,,,MADAR Node 81,1/31/20,Sighting,Sighting : Spencerville,41.2831056,-84.9219092
1/25/20 06:25,Sanford,FL,,,MADAR Node 91,2/7/20,Sighting,Sighting : Sanford,28.8028612,-81.269453
1/24/20 22:25,Roosevelt,UT,Triangle,7 minutes,"lights over Roosevelt, UT",2/7/20,Sighting,Sighting : Roosevelt,40.299403,-109.9887605
1/24/20 20:50,Fort Lauderdale,FL,Fireball,5 minutes,"Rotating discs that initially look like flashing fire balls moving in a row and disappearing ((""Starlink"" satellites??))",2/7/20,Sighting,Sighting : Fort Lauderdale,26.1224386,-80.13731740000001
1/24/20 19:45,Oklahoma City,OK,Flash,1 second,Green light across sky,1/31/20,Sighting,Sighting : Oklahoma City,35.4675602,-97.5164276
1/24/20 18:50,Manchester,CT,Circle,2 hours,"Clear night with one bright circular object, aura, captivating",2/7/20,Sighting,Sighting : Manchester,41.7759301,-72.52150089999999
1/24/20 07:06,Rotonda West,FL,Oval,1 second,3-dimentional object,2/7/20,Sighting,Sighting : Rotonda West,26.8836752,-82.2900944
1/24/20 06:01,Cambridge,OH,,,MADAR Node 137,2/7/20,Sighting,Sighting : Cambridge,40.031183,-81.5884561
1/24/20 05:40,St. Louis,MO,,,MADAR Node 70,1/31/20,Sighting,Sighting : St. Louis,38.6270025,-90.19940419999999
1/24/20 05:33,Valley City,ND,,,MADAR Node 93,2/7/20,Sighting,Sighting : Valley City,46.9233129,-98.0031547
1/24/20 02:00,Pawtucket,RI,Circle,,I saw a flying saucer outside of a retail company but that was not the first a few years ago,2/7/20,Sighting,Sighting : Pawtucket,41.878711,-71.38255579999999
1/23/20 21:43,Las Vegas,NV,Light,1 minute,"Single flashing light flew across sky, light then went out and disappeared. Reappeared a second later and moves upwards then turned lef",2/7/20,Sighting,Sighting : Las Vegas,36.1699412,-115.1398296
1/23/20 21:28,Waimanalo,HI,Triangle,21:38,"I saw a bright light outside, so I ran out to look at it, my roommate joined me. It was a very bright light that was a ball of light li",2/7/20,Sighting,Sighting : Waimanalo,21.35,-157.7208333
1/23/20 20:00,Lufkin,TX,Formation,5 minutes,"On Hwy 69 near Hwy 59 on N side of Lufkin and noticed 10-12 orange & white lights in a row in the sky.((""Starlink"" satellites??))",2/7/20,Sighting,Sighting : Lufkin,31.3382406,-94.729097
1/23/20 19:35,Santa Fe,NM,Changing,45 minutes,"Large Object Hovering/Flying with Flashing bright lights over Santa FE NM, witnessed by 3",2/7/20,Sighting,Sighting : Santa Fe,35.6869752,-105.937799
1/23/20 19:27,Farmington Hills,MI,,,MADAR Node 144,2/7/20,Sighting,Sighting : Farmington Hills,42.4989936,-83.3677168
1/23/20 18:20,Wilmington,DE,Light,15 seconds,"What first appeared as a bright star, turns a dim red and starts jumping location.",2/7/20,Sighting,Sighting : Wilmington,39.744655,-75.5483909
1/23/20 12:57,Mt. Vernon,IN,,,MADAR Node 119,2/7/20,Sighting,Sighting : Mt. Vernon,37.9322662,-87.8950267
1/23/20 10:41,Amargosa Valley,NV,Disk,5 seconds,Two flat dark gray metallic discs hovering in Armagosa valley NV.,2/7/20,Sighting,Sighting : Amargosa Valley,36.6437843,-116.4002815
1/23/20 06:15,Williamsport,PA,Circle,15,"18 dots - 50k+ ft - Williamsport, PA. ((""Starlink"" satellites??))",2/7/20,Sighting,Sighting : Williamsport,41.2411897,-77.00107860000001
1/23/20 05:30,Plymouth Township,MI,Triangle,10 minutes,Low flying object with bright white lights and two blinking red lights flying low overhead in residential area,2/7/20,Sighting,Sighting : Plymouth Township,42.3735328,-83.5090381
1/23/20 05:25,Valley City,ND,,,MADAR Node 93,2/7/20,Sighting,Sighting : Valley City,46.9233129,-98.0031547
1/23/20 00:30,Blackwood,NJ,Fireball,5 minutes,I was driving down the road and looked up and saw a super bright red light in the sky. It looked close and was very big. It looked lik,1/31/20,Sighting,Sighting : Blackwood,39.8023363,-75.0640602
1/22/20 21:00,North Andover,MA,Formation,25 seconds,5 star looking lights flying in pentagon formation,2/13/20,Sighting,Sighting : North Andover,42.69870239999999,-71.1350575
1/22/20 20:00,Ripley,TN,Light,20 minutes,Blue-green light in east sky moving in pattern,2/7/20,Sighting,Sighting : Ripley,35.7453552,-89.5297973
1/22/20 19:47,Corpus Christi,TX,Fireball,30,"There was a bright shining object flying fast across the sky, I took a video of this object as it was spinning fast in the sky",2/7/20,Sighting,Sighting : Corpus Christi,27.8005828,-97.39638099999999
1/22/20 19:18,Battle Creek,MI,Light,2 minutes,Large Moving Bright Red Light Over Battle Creek,1/31/20,Sighting,Sighting : Battle Creek,42.3211522,-85.17971419999999
1/22/20 19:00,Rosedale,MD,Sphere,20 seconds,I look directly up and see a sphere of a bright light traveling west to east then the bright light dissapears and a small red light app,2/7/20,Sighting,Sighting : Rosedale,39.3201074,-76.51551909999999
1/22/20 18:45,San Francisco,CA,Circle,2 minutes,White star craft unseen by naked eye,2/7/20,Sighting,Sighting : San Francisco,37.7749295,-122.4194155
1/22/20 18:40,Dalzell,SC,Circle,5 minutes,"UFO?? Dalzell, South Carolina",2/7/20,Sighting,Sighting : Dalzell,34.0168212,-80.4300818
1/22/20 17:45,Warren,RI,Egg,19:00,Upside down egg shaped glowing object with blue whispy tail and red blinking orbs.,2/7/20,Sighting,Sighting : Warren,41.7303793,-71.2825493
1/22/20 10:32,Port Charlotte,FL,Rectangle,10 seconds,White rectangular craft in southwest Florida,1/31/20,Sighting,Sighting : Port Charlotte,26.9761707,-82.09064479999999
1/22/20 09:35,Bear,DE,Triangle,3 minutes,I noticed an elongated blackish triangle shaped object. It seemed to be moving pretty fast it’s angle was very steep. I would say on a,1/31/20,Sighting,Sighting : Bear,39.6292788,-75.6582628
1/22/20 06:44,Evansville,IN,,,MADAR Node 153,2/7/20,Sighting,Sighting : Evansville,37.9715592,-87.5710898
1/22/20 01:25,Largo,FL,,,MADAR Node 140,2/7/20,Sighting,Sighting : Largo,27.9094665,-82.7873244
1/21/20 22:30,Fishersville,VA,Oval,2 minutes,the craft was larger than a helicopter and oval shaped grey with spinning colored lights and followed beside my car.,1/31/20,Sighting,Sighting : Fishersville,38.0990233,-78.9691923
1/21/20 21:15,Pukalani,HI,Oval,2 minutes,Bright orange glowing oval shaped object moving in the sky,1/31/20,Sighting,Sighting : Pukalani,20.8366667,-156.3366667
1/21/20 16:54,Baton Rouge,LA,Circle,10 minutes,"Large black “balloon” spotted over Baton Rouge, LA, USA",1/31/20,Sighting,Sighting : Baton Rouge,30.4514677,-91.18714659999999
1/21/20 16:43,Jonesboro,AR,,,MADAR Node 143,2/7/20,Sighting,Sighting : Jonesboro,35.84229670000001,-90.704279
1/21/20 16:28,Mobile,AL,,,MADAR Node 63,1/31/20,Sighting,Sighting : Mobile,30.6953657,-88.0398912
1/21/20 16:00,Siler city,NC,Disk,10 minutes,I seen a metallic and silver objects in the air less than 1500 ft it was big.,1/31/20,Sighting,Sighting : Siler city,35.7234734,-79.4622431
1/21/20 16:00,Siler City,NC,Disk,10 minutes,I seen a metallic and silver objects in the air.,1/31/20,Sighting,Sighting : Siler City,35.7234734,-79.4622431
1/21/20 11:27,Tomkins Cove,NY,Cylinder,4 minutes,"Extremely slow moving cylinder shaped object in sky to the west just above the tree line. There was no noise, no vapor, no lights...jus",2/7/20,Sighting,Sighting : Tomkins Cove,41.2568277,-73.9834462
1/21/20 05:29,Austin,TX,,,MADAR Node 101,2/7/20,Sighting,Sighting : Austin,30.267153,-97.7430608
1/21/20 05:05,Canyon Country,CA,Light,10 seconds,"Moving slow In sky like 10 sec pass over shadow pine. ((""Starlink"" satellites??))",1/31/20,Sighting,Sighting : Canyon Country,34.4235425,-118.4720633
1/21/20 03:30,Botkin,OH,Disk,11-15 minutes,While traveling south on interstate 75 my fiancee and I saw a very large amber glow in the distance with what seemed to be a cone shap,1/31/20,Sighting,Sighting : Botkin,40.467826,-84.18050219999999
1/21/20 03:08,Clarksville,TN,,,MADAR Node 138,2/7/20,Sighting,Sighting : Clarksville,36.5297706,-87.3594528
1/21/20 03:00,Hutchinson,KS,Oval,10 seconds,"I sighted the object at 3am-ish in Kansas. My fiancee and I went out to my vehicle to have a cigarette, because we couldn't sleep. He w",1/31/20,Sighting,Sighting : Hutchinson,38.0608445,-97.92977429999999
1/21/20 00:00,Gouverneur,NY,Unknown,1 minute,My partner and I were sitting in our living room and heard a strang whirring noise out curiosity I decided to look out the window and,1/31/20,Sighting,Sighting : Gouverneur,44.33672809999999,-75.462993
1/21/20 00:00,Gouverneur,NY,Unknown,1 minute,At about 12:50 or so I was sitting down with my girlfriend to put together a puzzle . shortly after we began separating out the edge pi,1/31/20,Sighting,Sighting : Gouverneur,44.33672809999999,-75.462993
1/20/20 21:00,Princeton,WV,Light,1-2 hours,A large array of lights resembling the aurora borealis were seen over the sky's of mercer county.,1/31/20,Sighting,Sighting : Princeton,37.3662293,-81.1025918
1/20/20 21:00,Laurelville,OH,,,MADAR Node 145,2/7/20,Sighting,Sighting : Laurelville,39.473397,-82.73933629999999
1/20/20 19:20,Gilbert,AZ,Circle,2 minutes,At 1920 p.m. I witnessed a green circle light with a red light attached flying from west to east. It made no sound. Suddenly it Stopped,1/31/20,Sighting,Sighting : Gilbert,33.3528264,-111.789027
1/20/20 19:00,Knoxville,TN,Circle,2 minutes,"Round, white light in sky moving back and forth very rapidly.",1/31/20,Sighting,Sighting : Knoxville,35.9606384,-83.9207392
1/20/20 18:00,Henderson,NY,Triangle,2 hours,Flashing red and green lights triangle shaped seemed to hover in one area as I walked it seemed to move my way,1/31/20,Sighting,Sighting : Henderson,43.846825,-76.1816012
1/20/20 17:57,Lowell,IN,Light,30 minutes,Super bright spherical light hovered in one spot no sound creepy as hell not a drone.,1/31/20,Sighting,Sighting : Lowell,41.2914243,-87.4205903
1/20/20 15:00,Detroit,MI,Flash,45 minutes,"Seen 3 middle one flashed as if it were a mirror, commercial plane flew past within no time jets flew through and went around objects,",1/31/20,Sighting,Sighting : Detroit,42.331427,-83.0457538
1/20/20 14:00,Old Westbury,NY,Other,,"Hi. This was not a UFO in the sky sighting. There's still snow on our lawn. I went out to look at something, and noticed unusual prints",1/31/20,Sighting,Sighting : Old Westbury,40.7887113,-73.5995717
1/20/20 07:04,Fishers,IN,,,MADAR Node 84,1/31/20,Sighting,Sighting : Fishers,39.9567548,-86.01335
1/20/20 06:30,Ft. Worth,TX,Light,5 minutes,I was looking up at the stars .,1/31/20,Sighting,Sighting : Ft. Worth,32.7554883,-97.3307658
1/20/20 06:30,Ft. Worth,TX,Light,5 minutes,I was walking down my driveway to let my dog go poop. While i was waiting i was looking up at the stars . Ten i see a small orb of ligh,1/31/20,Sighting,Sighting : Ft. Worth,32.7554883,-97.3307658
1/20/20 06:30,Hollywood,MD,Circle,2 hours,"Captured footage of bright “stars,” revealed to be clear, circular hovering objects in southern Maryland.",1/31/20,Sighting,Sighting : Hollywood,38.3583554,-76.5719414
1/20/20 06:01,Cambridge,OH,,,MADAR Node 137,2/7/20,Sighting,Sighting : Cambridge,40.031183,-81.5884561
1/20/20 03:21,Royal Palm Beach,FL,,,MADAR Node 76,1/31/20,Sighting,Sighting : Royal Palm Beach,26.7083984,-80.2306019
1/20/20 00:45,Schaghticoke,NY,Sphere,10 seconds,"It was not a plane, meteor or a balloon",2/7/20,Sighting,Sighting : Schaghticoke,42.9000773,-73.5853939
1/19/20 23:29,Laughlintown,PA,,,MADAR Node 94,2/7/20,Sighting,Sighting : Laughlintown,40.2119249,-79.1985923
1/19/20 21:30,Dalzell,SC,Disk,45 minutes,"In Dalzell, in the area where 441/521 crosses there appeared to be a large Spot Light above my house. I got out my camera and witness a",2/7/20,Sighting,Sighting : Dalzell,34.0168212,-80.4300818
1/19/20 21:10,Mountlake Terrace,WA,,,MADAR Node 100,2/7/20,Sighting,Sighting : Mountlake Terrace,47.7881528,-122.3087405
1/19/20 21:00,Centennial,CO,Formation,10 seconds,Formation of 25-30 light gray objects pass through the night sky.,1/31/20,Sighting,Sighting : Centennial,39.5807452,-104.8771726
1/19/20 19:00,Worthing,SD,Circle,5 seconds,There was a basketball sized orb that was bright white. Moved up and down and then disappeared.,1/31/20,Sighting,Sighting : Worthing,43.3291475,-96.7628256
1/19/20 19:00,Coachella,CA,Fireball,2 minutes,Driving down Frederick st coming to stop light on. Ave 52 when we saw what looked like 3 fireballs coming down but instead of just fal,1/31/20,Sighting,Sighting : Coachella,33.6803003,-116.173894
1/19/20 18:57,Avondale,AZ,Triangle,20 seconds,I first noticed 2 red lights moving in perfect formation in the south/western sky moving east to west. The 2 red lights were tiny in co,1/31/20,Sighting,Sighting : Avondale,33.4355977,-112.3496021
1/19/20 18:30,Brookings,SD,Triangle,<1 minute,Triangular Shaped Drone,1/31/20,Sighting,Sighting : Brookings,44.3113573,-96.79838769999999
1/19/20 15:36,Evans,GA,Changing,3 minutes,"Christmas candy shaped, Mirror on bottom, disappeared & reappeared",2/13/20,Sighting,Sighting : Evans,33.5337464,-82.1306747
1/19/20 13:05,Evansville,IN,,,MADAR Node 153,2/7/20,Sighting,Sighting : Evansville,37.9715592,-87.5710898
1/19/20 08:36,Pueblo,CO,,,MADAR Node 83,1/31/20,Sighting,Sighting : Pueblo,38.2544472,-104.6091409
1/19/20 05:06,Newburgh,IN,,,MADAR Node 142,2/7/20,Sighting,Sighting : Newburgh,37.9444882,-87.4052865
1/19/20 01:26,Santa Claus,IN,,,MADAR Node 114,2/7/20,Sighting,Sighting : Santa Claus,38.1200538,-86.9141607
1/18/20 21:00,La Mesa,CA,Fireball,5 minutes,Orange fireball dropping a flare,2/7/20,Sighting,Sighting : La Mesa,32.7678287,-117.0230839
1/18/20 19:51,Mt. Vernon,IN,,,MADAR Node 119,2/7/20,Sighting,Sighting : Mt. Vernon,37.9322662,-87.8950267
1/18/20 19:30,Wilmington,NC,Circle,3 minutes,One white light that dimmed and disappeared.,1/31/20,Sighting,Sighting : Wilmington,34.2103894,-77.8868117
1/18/20 19:05,Alamo,TX,Light,7 minutes,My uncle had seen it moving across the sky tapped my shoulder then asked me if it was a satellite. I witnessed what I can only desc,2/7/20,Sighting,Sighting : Alamo,26.1836854,-98.1230638
1/18/20 18:50,Red Lodge,MT,Light,10 minutes,We saw 30 dots of light traveling one after the other from the south west to the north east. Possibly satellites traveling in a line.,1/31/20,Sighting,Sighting : Red Lodge,45.1857782,-109.2468211
1/18/20 17:00,Decaturville,TN,Light,2 hours,I have been seeing the same bright yellow to orange color changing light circular shaped flying object that sometimes doesn't appear.,1/31/20,Sighting,Sighting : Decaturville,35.5842371,-88.119479
1/18/20 04:00,Baldwin Hills Estates,CA,Sphere,2 hours,Cloned Stars,2/7/20,Sighting,Sighting : Baldwin Hills Estates,34.0062245,-118.3498793
1/18/20 01:06,Harrisonburg,VA,Triangle,30 seconds,Triangular light pattern rising slowly over northeast of Harrisonburg into the clouds. Followed seconds later by a single light.,2/7/20,Sighting,Sighting : Harrisonburg,38.4495688,-78.8689155
1/17/20 21:31,Delhi,NY,Triangle,5-6 minutes,On 1/17/2020 FRIDAY EVENING AT 9:31 I WENT TO LET DOG OUT NOTICED IN N-E SKY TRIANGLE SHAPE OBJECT WITH ONE BRIGHT WHITE LIGHT ON EACH,2/7/20,Sighting,Sighting : Delhi,42.27814009999999,-74.91599459999999
1/17/20 20:30,Fairplain,WV,Circle,30,We saw the craft coming over the hill till it got so close I could see it and it was a space ship with lots of lights coming off it,2/7/20,Sighting,Sighting : Fairplain,38.7525866,-81.68596219999999
1/17/20 20:00,Malone,NY,Circle,3 minutes,"These smaller looking aircrafts lined up in perfect formation like a trail of ants starting flying. ((""Starlink"" satellites??))",2/7/20,Sighting,Sighting : Malone,44.8486596,-74.29489830000001
